id,admin0,admin1,admin2,admin3,level,admin,iso2,iso1_3n,iso2_uid,iso1_3c,iso1_2c,nameid,mean,sum,sum_o65,perc_o65,centroid_longitude,centroid_latitude,mean_city,mean_motor,mean_walk
ECA0101,Ecuador,Azuay,Cuenca,,canton,2,A,218,EC-A,ECU,EC,"Cuenca, Azuay, Ecuador",163.9458675,611845.9777,51992.22559,0.084976003,-79.21998322,-2.861475391,115.6978552,63.57477702,255.0158177
ECA0102,Ecuador,Azuay,Giron,,canton,2,A,218,EC-A,ECU,EC,"Giron, Azuay, Ecuador",36.74701102,15213.26256,2185.027008,0.14362645,-79.15934165,-3.179486676,39.16707617,16.78151998,97.28009828
ECA0103,Ecuador,Azuay,Gualaceo,,canton,2,A,218,EC-A,ECU,EC,"Gualaceo, Azuay, Ecuador",127.5274819,52413.79507,5893.672546,0.11244506,-78.84493133,-2.917848875,37.19950739,25.80206448,76.52216749
ECA0104,Ecuador,Azuay,Nabon,,canton,2,A,218,EC-A,ECU,EC,"Nabon, Azuay, Ecuador",25.87053005,19170.06276,2432.846021,0.12690862,-79.11888276,-3.329783141,79.76510067,22.83426712,85.00268456
ECA0105,Ecuador,Azuay,Paute,,canton,2,A,218,EC-A,ECU,EC,"Paute, Azuay, Ecuador",99.14803766,31429.92794,3866.837013,0.12303042,-78.68166452,-2.710826563,37.85266458,21.38283047,105.9341693
ECA0106,Ecuador,Azuay,Pucara,,canton,2,A,218,EC-A,ECU,EC,"Pucara, Azuay, Ecuador",17.82115377,12278.77495,1457.078345,0.11866643,-79.52749603,-3.192427141,132.6401734,79.75224651,283.9436416
ECA0107,Ecuador,Azuay,San Fernando,,canton,2,A,218,EC-A,ECU,EC,"San Fernando, Azuay, Ecuador",29.43985668,4887.016209,800.9729083,0.16389816,-79.26803015,-3.132711917,76.60946746,35.19231334,197.260355
ECA0108,Ecuador,Azuay,Santa Isabel,,canton,2,A,218,EC-A,ECU,EC,"Santa Isabel, Azuay, Ecuador",31.49585871,22173.08453,2410.898557,0.10873086,-79.36348171,-3.202338424,98.9844413,36.77445778,195.0664781
ECA0109,Ecuador,Azuay,Sigsig,,canton,2,A,218,EC-A,ECU,EC,"Sigsig, Azuay, Ecuador",41.33113331,32610.26418,3962.963821,0.12152504,-78.85390493,-3.129850837,98.20807062,57.82596284,161.3366961
ECA0110,Ecuador,Azuay,Ona,,canton,2,A,218,EC-A,ECU,EC,"Ona, Azuay, Ecuador",12.69579567,4354.657915,716.0005399,0.16442177,-79.1306218,-3.489181118,93.79351032,37.33893815,120.1415929
ECA0111,Ecuador,Azuay,Chordeleg,,canton,2,A,218,EC-A,ECU,EC,"Chordeleg, Azuay, Ecuador",117.6385139,14351.8987,1736.054154,0.12096338,-78.73352521,-2.995709554,64.84677419,41.8548315,99.04032258
ECA0112,Ecuador,Azuay,El Pan,,canton,2,A,218,EC-A,ECU,EC,"El Pan, Azuay, Ecuador",23.78021007,3662.15235,765.931764,0.20914797,-78.65468777,-2.857735713,174.2774194,147.3572107,202.5483871
ECA0113,Ecuador,Azuay,Sevilla De Oro,,canton,2,A,218,EC-A,ECU,EC,"Sevilla De Oro, Azuay, Ecuador",19.32059828,7090.65957,902.4694023,0.12727581,-78.54195451,-2.659535162,140,117.0994918,344.5819672
ECA0114,Ecuador,Azuay,Guachapala,,canton,2,A,218,EC-A,ECU,EC,"Guachapala, Azuay, Ecuador",88.28476257,3972.814316,643.3166432,0.1619297,-78.69654048,-2.783194078,32.36363636,8.853318968,70.97727273
ECA0115,Ecuador,Azuay,Camilo Ponce Enriquez,,canton,2,A,218,EC-A,ECU,EC,"Camilo Ponce Enriquez, Azuay, Ecuador",35.38498182,26361.81146,1350.777645,0.051239941,-79.59863287,-2.97784424,144.8644295,71.73648978,283.6684564
ECB0201,Ecuador,Bolivar,Guaranda,,canton,2,B,218,EC-B,ECU,EC,"Guaranda, Bolivar, Ecuador",45.51238853,101356.0893,15137.13097,0.14934604,-79.04949703,-1.414620412,81.76871055,40.19119263,157.4977457
ECB0202,Ecuador,Bolivar,Chillanes,,canton,2,B,218,EC-B,ECU,EC,"Chillanes, Bolivar, Ecuador",24.79746271,19193.23614,2531.192689,0.1318794,-79.1211132,-2.01157654,110.4365285,41.06511728,143.3873057
ECB0203,Ecuador,Bolivar,Chimbo,,canton,2,B,218,EC-B,ECU,EC,"Chimbo, Bolivar, Ecuador",55.44607342,17021.94454,1733.21097,0.10182215,-79.14469914,-1.673247719,69.18181818,36.59522917,115.2272727
ECB0204,Ecuador,Bolivar,Echeandia,,canton,2,B,218,EC-B,ECU,EC,"Echeandia, Bolivar, Ecuador",48.3654893,13107.0476,3264.702018,0.2490799,-79.26269193,-1.455491085,79.66914498,46.85181294,285.2862454
ECB0205,Ecuador,Bolivar,San Miguel,,canton,2,B,218,EC-B,ECU,EC,"San Miguel, Bolivar, Ecuador",44.45852475,29698.29453,4456.489311,0.15005876,-79.10377606,-1.794458712,75.3,37.42844293,117.9402985
ECB0206,Ecuador,Bolivar,Caluma,,canton,2,B,218,EC-B,ECU,EC,"Caluma, Bolivar, Ecuador",69.15395394,14314.86847,1459.870633,0.10198282,-79.21882232,-1.608160477,90.70813397,42.91015341,282.6220096
ECB0207,Ecuador,Bolivar,Las Naves,,canton,2,B,218,EC-B,ECU,EC,"Las Naves, Bolivar, Ecuador",39.73780694,6795.164988,760.0120239,0.111846,-79.29244138,-1.286889212,64.65142857,18.82088594,83.13714286
ECC0401,Ecuador,Carchi,Tulcan,,canton,2,C,218,EC-C,ECU,EC,"Tulcan, Carchi, Ecuador",49.42936118,105778.8329,8853.739089,0.083700478,-78.04032855,0.821223423,287.8052312,218.4215782,387.6725829
ECC0402,Ecuador,Carchi,Bolivar,,canton,2,C,218,EC-C,ECU,EC,"Bolivar, Carchi, Ecuador",37.14361262,15414.59924,2026.259813,0.1314507,-77.93458829,0.497500767,80.46097561,48.99775958,83.6097561
ECC0403,Ecuador,Carchi,Espejo,,canton,2,C,218,EC-C,ECU,EC,"Espejo, Carchi, Ecuador",22.40880824,14498.49893,1974.369524,0.13617751,-77.964739,0.66375309,143.0046083,98.53076804,205.4639017
ECC0404,Ecuador,Carchi,Mira,,canton,2,C,218,EC-C,ECU,EC,"Mira, Carchi, Ecuador",19.37796782,13254.52999,1808.545212,0.13644733,-78.10479832,0.591487728,148.2253314,112.8944314,236.5022091
ECC0405,Ecuador,Carchi,Montufar,,canton,2,C,218,EC-C,ECU,EC,"Montufar, Carchi, Ecuador",73.88516344,33174.43839,3881.65427,0.11700738,-77.81526161,0.567122695,91.54666667,55.60966946,100.4666667
ECC0406,Ecuador,Carchi,San Pedro De Huaca,,canton,2,C,218,EC-C,ECU,EC,"San Pedro De Huaca, Carchi, Ecuador",99.42841203,8451.415023,862.1802127,0.10201608,-77.7143888,0.612794684,38.85882353,16.72535018,46.70588235
ECD2201,Ecuador,Orellana,Orellana,,canton,2,D,218,EC-D,ECU,EC,"Orellana, Orellana, Ecuador",14.59933326,120473.698,4050.627218,0.033622503,-76.77258036,-0.654333124,296.8894277,205.0305516,630.639064
ECD2202,Ecuador,Orellana,Aguarico,,canton,2,D,218,EC-D,ECU,EC,"Aguarico, Orellana, Ecuador",0.614316022,8015.595452,442.5049702,0.055205502,-75.8821888,-0.949666731,1160.704141,706.4361711,1327.019555
ECD2203,Ecuador,Orellana,La Joya De Los Sachas,,canton,2,D,218,EC-D,ECU,EC,"La Joya De Los Sachas, Orellana, Ecuador",44.6888721,62743.17643,3592.933147,0.057264127,-76.8914886,-0.280089967,72.22869318,44.58947651,239.8352273
ECD2204,Ecuador,Orellana,Loreto,,canton,2,D,218,EC-D,ECU,EC,"Loreto, Orellana, Ecuador",14.04593879,35255.30637,1418.514552,0.04023549,-77.35251829,-0.643543534,196.8738019,204.2220897,784.6505591
ECE0801,Ecuador,Esmeraldas,Esmeraldas,,canton,2,E,218,EC-E,ECU,EC,"Esmeraldas, Esmeraldas, Ecuador",144.8988496,227346.295,15206.84749,0.066888474,-79.62575932,0.794979095,91.05751634,74.2137807,271.3986928
ECE0802,Ecuador,Esmeraldas,Eloy Alfaro,,canton,2,E,218,EC-E,ECU,EC,"Eloy Alfaro, Esmeraldas, Ecuador",9.714879806,48593.82879,3066.263972,0.063099861,-78.95054379,0.730194109,663.620971,421.9436974,766.3237454
ECE0803,Ecuador,Esmeraldas,Muisne,,canton,2,E,218,EC-E,ECU,EC,"Muisne, Esmeraldas, Ecuador",23.43994448,33776.96,2444.272475,0.072365083,-79.9208559,0.47957047,128.3017544,84.03674151,330.3136842
ECE0804,Ecuador,Esmeraldas,Quininde,,canton,2,E,218,EC-E,ECU,EC,"Quininde, Esmeraldas, Ecuador",34.20776102,155166.404,9025.19587,0.058164626,-79.43892912,0.362069438,190.1377788,110.0334864,334.4228306
ECE0805,Ecuador,Esmeraldas,San Lorenzo,,canton,2,E,218,EC-E,ECU,EC,"San Lorenzo, Esmeraldas, Ecuador",14.99650179,52907.65831,2870.763689,0.054259889,-78.67609247,0.986996613,291.3882014,212.078016,575.7752518
ECE0806,Ecuador,Esmeraldas,Atacames,,canton,2,E,218,EC-E,ECU,EC,"Atacames, Esmeraldas, Ecuador",81.05676631,47985.60566,2787.402871,0.058088314,-79.85939036,0.78804561,41.44007156,21.86970411,104.0447227
ECE0807,Ecuador,Esmeraldas,Rioverde,,canton,2,E,218,EC-E,ECU,EC,"Rioverde, Esmeraldas, Ecuador",18.12142925,31875.59406,2323.094518,0.072880037,-79.34059503,0.852739406,280.8581355,148.0769784,368.9797336
ECF0301,Ecuador,Canar,Azogues,,canton,2,F,218,EC-F,ECU,EC,"Azogues, Canar, Ecuador",107.1149312,76694.29074,8954.346602,0.11675376,-78.74663157,-2.626490062,77.31328671,56.40114439,232.9552448
ECF0302,Ecuador,Canar,Biblian,,canton,2,F,218,EC-F,ECU,EC,"Biblian, Canar, Ecuador",84.81482399,22645.55801,3206.376971,0.14158967,-78.98091571,-2.658509739,58.36802974,26.42048797,126.1189591
ECF0303,Ecuador,Canar,Canar,,canton,2,F,218,EC-F,ECU,EC,"Canar, Canar, Ecuador",32.06827851,74173.9282,7391.612753,0.099652439,-79.06869594,-2.581554587,125.5073657,61.53878356,233.2525997
ECF0304,Ecuador,Canar,La Troncal,,canton,2,F,218,EC-F,ECU,EC,"La Troncal, Canar, Ecuador",160.3643261,59976.25797,3993.666013,0.066587448,-79.38192198,-2.448590511,58.60427807,18.64571031,101.4491979
ECF0305,Ecuador,Canar,El Tambo,,canton,2,F,218,EC-F,ECU,EC,"El Tambo, Canar, Ecuador",134.9542309,10391.47578,968.3583004,0.093187757,-78.92192923,-2.504105982,40.19230769,9.689575289,52.66666667
ECF0306,Ecuador,Canar,Deleg,,canton,2,F,218,EC-F,ECU,EC,"Deleg, Canar, Ecuador",77.68653252,7069.47446,1576.95985,0.22306606,-78.93941236,-2.762895412,28.33333333,16.30682063,54.23333333
ECF0307,Ecuador,Canar,Suscal,,canton,2,F,218,EC-F,ECU,EC,"Suscal, Canar, Ecuador",97.18269164,5345.04804,542.5236462,0.10150024,-79.06685317,-2.464231815,48.03571429,22.61205305,217.6071429
ECG0901,Ecuador,Guayas,Guayaquil,,canton,2,G,218,EC-G,ECU,EC,"Guayaquil, Guayas, Ecuador",571.9767683,2755212.093,191703.086,0.069578342,-80.15987812,-2.332294716,99.22421142,64.79277971,290.908994
ECG0902,Ecuador,Guayas,Alfredo Baquerizo Moreno,,canton,2,G,218,EC-G,ECU,EC,"Alfredo Baquerizo Moreno, Guayas, Ecuador",116.2608387,29413.99219,2239.862261,0.076149553,-79.54742291,-1.946946497,40.32684825,33.07574748,201.614786
ECG0903,Ecuador,Guayas,Balao,,canton,2,G,218,EC-G,ECU,EC,"Balao, Guayas, Ecuador",52.06284017,24677.78624,1477.595788,0.05987554,-79.73408007,-2.892595129,76.50759219,39.92577364,162.7527115
ECG0904,Ecuador,Guayas,Balzar,,canton,2,G,218,EC-G,ECU,EC,"Balzar, Guayas, Ecuador",47.01542383,65163.37742,5040.568087,0.077352777,-79.90730481,-1.290248668,64.10151188,46.45018823,181.1403888
ECG0905,Ecuador,Guayas,Colimes,,canton,2,G,218,EC-G,ECU,EC,"Colimes, Guayas, Ecuador",32.73049326,29228.33048,2766.138329,0.094638944,-80.08754466,-1.530974859,57.77097506,48.75639838,241.7437642
ECG0906,Ecuador,Guayas,Daule,,canton,2,G,218,EC-G,ECU,EC,"Daule, Guayas, Ecuador",290.2333732,159628.3553,12009.56246,0.075234517,-79.94320245,-1.900898573,11.42057762,12.61479607,88.53790614
ECG0907,Ecuador,Guayas,Duran,,canton,2,G,218,EC-G,ECU,EC,"Duran, Guayas, Ecuador",773.2200614,269080.5814,14254.73701,0.052975718,-79.77702911,-2.230851392,15.54285714,13.41818135,83.40857143
ECG0908,Ecuador,Guayas,Empalme,,canton,2,G,218,EC-G,ECU,EC,"Empalme, Guayas, Ecuador",107.2082261,89947.70172,6206.923934,0.069005921,-79.66026123,-0.987886756,25.34730539,21.53788555,114.5137725
ECG0909,Ecuador,Guayas,El Triunfo,,canton,2,G,218,EC-G,ECU,EC,"El Triunfo, Guayas, Ecuador",116.5318648,52905.46664,3759.226423,0.071055539,-79.38129526,-2.318170035,53.57582418,25.78016852,140.6637363
ECG0910,Ecuador,Guayas,Milagro,,canton,2,G,218,EC-G,ECU,EC,"Milagro, Guayas, Ecuador",428.2810323,200435.5231,15838.65194,0.079021186,-79.5601145,-2.118305282,10.2793177,10.67136096,82.445629
ECG0911,Ecuador,Guayas,Naranjal,,canton,2,G,218,EC-G,ECU,EC,"Naranjal, Guayas, Ecuador",41.05600808,83548.97645,5073.483192,0.060724661,-79.60765248,-2.53511979,102.9909729,66.87200932,240.3415246
ECG0912,Ecuador,Guayas,Naranjito,,canton,2,G,218,EC-G,ECU,EC,"Naranjito, Guayas, Ecuador",167.7677955,44458.4658,3510.473438,0.078960739,-79.39784112,-2.154070119,27.35114504,12.06288354,83.56870229
ECG0913,Ecuador,Guayas,Palestina,,canton,2,G,218,EC-G,ECU,EC,"Palestina, Guayas, Ecuador",84.28198439,19132.01046,1521.726204,0.079538226,-79.9192729,-1.6368492,33.79912664,29.99321173,153.4934498
ECG0914,Ecuador,Guayas,Pedro Carbo,,canton,2,G,218,EC-G,ECU,EC,"Pedro Carbo, Guayas, Ecuador",47.84946825,52299.4688,4234.83315,0.080972776,-80.28903464,-1.851064927,63.27838828,33.47452928,167.1849817
ECG0916,Ecuador,Guayas,Samborondon,,canton,2,G,218,EC-G,ECU,EC,"Samborondon, Guayas, Ecuador",169.8513555,71677.27203,6088.638046,0.084945172,-79.78304669,-1.982976468,32.00238095,22.23448253,97.2952381
ECG0918,Ecuador,Guayas,Santa Lucia,,canton,2,G,218,EC-G,ECU,EC,"Santa Lucia, Guayas, Ecuador",111.0756791,46318.5582,2492.67078,0.053815812,-80.03517079,-1.714514773,36.7373494,23.96374633,117.0168675
ECG0919,Ecuador,Guayas,Salitre,,canton,2,G,218,EC-G,ECU,EC,"Salitre, Guayas, Ecuador",149.3508445,68552.03762,5637.068201,0.082230501,-79.80273459,-1.805111071,32.12121212,17.70306693,110.3831169
ECG0920,Ecuador,Guayas,San Jacinto De Yaguachi,,canton,2,G,218,EC-G,ECU,EC,"San Jacinto De Yaguachi, Guayas, Ecuador",125.5678202,75842.96341,6653.270804,0.087724298,-79.74303914,-2.10273082,23.13689482,17.93040112,81.92487479
ECG0921,Ecuador,Guayas,Playas,,canton,2,G,218,EC-G,ECU,EC,"Playas, Guayas, Ecuador",146.7025816,46064.61062,3194.795778,0.069354668,-80.43820063,-2.556733444,69.45741325,33.09125897,161.1577287
ECG0922,Ecuador,Guayas,Simon Bolivar,,canton,2,G,218,EC-G,ECU,EC,"Simon Bolivar, Guayas, Ecuador",91.0839373,31332.87443,2323.154527,0.074144319,-79.40763265,-2.037261555,43.58550725,26.22423638,182.3855072
ECG0923,Ecuador,Guayas,Coronel Marcelino Mariduena,,canton,2,G,218,EC-G,ECU,EC,"Coronel Marcelino Mariduena, Guayas, Ecuador",51.80866204,15594.40727,1620.504549,0.10391575,-79.38207762,-2.239200659,37.75409836,22.19582578,135.4786885
ECG0924,Ecuador,Guayas,Lomas De Sargentillo,,canton,2,G,218,EC-G,ECU,EC,"Lomas De Sargentillo, Guayas, Ecuador",281.1321294,22209.43822,1635.555545,0.073642366,-80.08029322,-1.850180663,16.34210526,10.33868814,56.17105263
ECG0925,Ecuador,Guayas,Nobol,,canton,2,G,218,EC-G,ECU,EC,"Nobol, Guayas, Ecuador",156.7168248,25074.69197,1717.403211,0.068491496,-80.04944428,-1.965235415,33.59627329,30.18884721,128.0559006
ECG0927,Ecuador,Guayas,General Antonio Elizalde,,canton,2,G,218,EC-G,ECU,EC,"General Antonio Elizalde, Guayas, Ecuador",68.55437316,12339.78717,1062.671572,0.086117499,-79.20222772,-2.156293454,53.32222222,33.32011464,154.4166667
ECG0928,Ecuador,Guayas,Isidro Ayora,,canton,2,G,218,EC-G,ECU,EC,"Isidro Ayora, Guayas, Ecuador",23.94401435,13648.08818,904.2984595,0.066258252,-80.16256925,-1.962422045,65.20557491,35.61887784,121.3327526
ECH0601,Ecuador,Chimborazo,Riobamba,,canton,2,H,218,EC-H,ECU,EC,"Riobamba, Chimborazo, Ecuador",226.1597427,259857.5444,24919.34033,0.095896162,-78.77324101,-1.613301829,52.84031414,45.99650373,197.052356
ECH0602,Ecuador,Chimborazo,Alausi,,canton,2,H,218,EC-H,ECU,EC,"Alausi, Chimborazo, Ecuador",26.26600796,50903.52343,5745.680435,0.11287393,-78.74182755,-2.295535603,196.1600618,152.460296,380.9701493
ECH0603,Ecuador,Chimborazo,Colta,,canton,2,H,218,EC-H,ECU,EC,"Colta, Chimborazo, Ecuador",52.34820006,51353.58426,7769.463548,0.1512935,-78.84406541,-1.815744463,57.95816327,41.8652778,190.4081633
ECH0604,Ecuador,Chimborazo,Chambo,,canton,2,H,218,EC-H,ECU,EC,"Chambo, Chimborazo, Ecuador",71.81024955,13859.37816,1438.176181,0.10376917,-78.53915286,-1.758820889,63.13020833,45.5938479,183.1197917
ECH0605,Ecuador,Chimborazo,Chunchi,,canton,2,H,218,EC-H,ECU,EC,"Chunchi, Chimborazo, Ecuador",45.75869469,14505.50622,2007.351375,0.13838547,-78.90544657,-2.334509392,97.52848101,55.05469043,198.1582278
ECH0606,Ecuador,Chimborazo,Guamote,,canton,2,H,218,EC-H,ECU,EC,"Guamote, Chimborazo, Ecuador",36.58551765,51951.43507,4065.491695,0.078255616,-78.63859907,-2.038737066,98.72249474,88.05672603,421.9978977
ECH0607,Ecuador,Chimborazo,Guano,,canton,2,H,218,EC-H,ECU,EC,"Guano, Chimborazo, Ecuador",93.07208917,49979.71188,5829.305542,0.11663344,-78.68193888,-1.560015887,33.32342007,24.11328191,141.1486989
ECH0608,Ecuador,Chimborazo,Pallatanga,,canton,2,H,218,EC-H,ECU,EC,"Pallatanga, Chimborazo, Ecuador",29.99819965,13379.19704,1640.603713,0.12262348,-78.93029951,-2.017025535,114.0674157,67.02587502,262.2516854
ECH0609,Ecuador,Chimborazo,Penipe,,canton,2,H,218,EC-H,ECU,EC,"Penipe, Chimborazo, Ecuador",18.08936483,7687.980054,1586.193272,0.20632119,-78.44992871,-1.566421758,184.2232558,134.2086457,249.5767442
ECH0610,Ecuador,Chimborazo,Cumanda,,canton,2,H,218,EC-H,ECU,EC,"Cumanda, Chimborazo, Ecuador",78.05799543,14518.78715,1200.823617,0.082708262,-79.05098586,-2.205088281,102.4891304,50.4443573,148.9891304
ECI1001,Ecuador,Imbabura,Ibarra,,canton,2,I,218,EC-I,ECU,EC,"Ibarra, Imbabura, Ecuador",165.4781676,213135.8798,21936.774,0.10292389,-78.08674157,0.329279117,73.3601859,53.11295174,172.5917893
ECI1002,Ecuador,Imbabura,Antonio Ante,,canton,2,I,218,EC-I,ECU,EC,"Antonio Ante, Imbabura, Ecuador",541.0471945,50858.43629,5068.125088,0.099651612,-78.21790953,0.325917809,10.35106383,7.771942432,39.11702128
ECI1003,Ecuador,Imbabura,Cotacachi,,canton,2,I,218,EC-I,ECU,EC,"Cotacachi, Imbabura, Ecuador",25.62575346,54377.84884,5447.602886,0.10018055,-78.74498578,0.318427928,230.9962246,124.2156545,427.2642756
ECI1004,Ecuador,Imbabura,Otavalo,,canton,2,I,218,EC-I,ECU,EC,"Otavalo, Imbabura, Ecuador",210.6337068,122167.5499,11074.09619,0.090646788,-78.24643946,0.212887438,49.68502582,38.90396854,171.2839931
ECI1005,Ecuador,Imbabura,Pimampiro,,canton,2,I,218,EC-I,ECU,EC,"Pimampiro, Imbabura, Ecuador",29.60240698,15422.85403,2094.739492,0.13582048,-77.93434053,0.288425042,142.5096154,86.32832181,269.7788462
ECI1006,Ecuador,Imbabura,San Miguel De Urcuqui,,canton,2,I,218,EC-I,ECU,EC,"San Miguel De Urcuqui, Imbabura, Ecuador",20.69340969,18561.98849,2306.12968,0.12423936,-78.31666846,0.567080757,178.6046771,116.0573709,374.5857461
ECL1101,Ecuador,Loja,Loja,,canton,2,L,218,EC-L,ECU,EC,"Loja, Loja, Ecuador",108.3805501,240713.2018,19909.49275,0.08271043,-79.43476089,-3.847080383,86.52246181,77.46877496,188.6284816
ECL1102,Ecuador,Loja,Calvas,,canton,2,L,218,EC-L,ECU,EC,"Calvas, Loja, Ecuador",31.98109645,31437.41781,4381.976154,0.13938728,-79.60399807,-4.337268134,80.68399592,20.51612005,107.6687054
ECL1103,Ecuador,Loja,Catamayo,,canton,2,L,218,EC-L,ECU,EC,"Catamayo, Loja, Ecuador",45.13006031,34659.88632,3755.646947,0.10835716,-79.40320337,-3.96141736,46.46124031,35.28430825,129.1847545
ECL1104,Ecuador,Loja,Celica,,canton,2,L,218,EC-L,ECU,EC,"Celica, Loja, Ecuador",26.54634055,16193.26774,2010.212202,0.12413877,-80.02957108,-4.167710903,77.43973941,15.17415276,75.86482085
ECL1105,Ecuador,Loja,Chaguarpamba,,canton,2,L,218,EC-L,ECU,EC,"Chaguarpamba, Loja, Ecuador",22.08044942,8147.685837,1393.526244,0.17103338,-79.6705229,-3.853277468,59.2303523,29.09797323,120.9891599
ECL1106,Ecuador,Loja,Espindola,,canton,2,L,218,EC-L,ECU,EC,"Espindola, Loja, Ecuador",27.16039154,16404.87649,2383.486825,0.14529136,-79.41129123,-4.546943342,142.1976936,106.1040785,182.2932455
ECL1107,Ecuador,Loja,Gonzanama,,canton,2,L,218,EC-L,ECU,EC,"Gonzanama, Loja, Ecuador",17.47276745,14327.66931,2715.788675,0.18954854,-79.45608901,-4.159512386,60.51522534,42.14662425,224.3483557
ECL1108,Ecuador,Loja,Macara,,canton,2,L,218,EC-L,ECU,EC,"Macara, Loja, Ecuador",31.00427806,20865.87914,2492.607971,0.11945856,-79.94583411,-4.304373728,100.6957164,33.3014747,151.1462334
ECL1109,Ecuador,Loja,Paltas,,canton,2,L,218,EC-L,ECU,EC,"Paltas, Loja, Ecuador",19.78819859,26773.43269,4305.559359,0.16081461,-79.75902502,-4.013053759,81.02137067,38.02837026,176.9285188
ECL1110,Ecuador,Loja,Puyango,,canton,2,L,218,EC-L,ECU,EC,"Puyango, Loja, Ecuador",23.25084835,17368.38372,2011.146491,0.11579353,-80.07222509,-3.97459583,85.08724832,32.43102268,153.6375839
ECL1111,Ecuador,Loja,Saraguro,,canton,2,L,218,EC-L,ECU,EC,"Saraguro, Loja, Ecuador",26.79116132,33997.98372,3821.031461,0.11238994,-79.296993,-3.569930325,89.19051383,47.29233898,187.4355731
ECL1112,Ecuador,Loja,Sozoranga,,canton,2,L,218,EC-L,ECU,EC,"Sozoranga, Loja, Ecuador",17.19511362,8322.43499,1361.405096,0.16358255,-79.83262885,-4.238104686,97.98329854,33.39157137,186.6722338
ECL1113,Ecuador,Loja,Zapotillo,,canton,2,L,218,EC-L,ECU,EC,"Zapotillo, Loja, Ecuador",10.05105058,14443.35969,1605.159395,0.11113477,-80.39101859,-4.39206818,132.6996491,58.2229723,359.4238596
ECL1114,Ecuador,Loja,Pindal,,canton,2,L,218,EC-L,ECU,EC,"Pindal, Loja, Ecuador",40.2206938,9532.304431,986.9861988,0.1035412,-80.1312723,-4.093127476,71.99156118,18.70831968,127.6540084
ECL1115,Ecuador,Loja,Quilanga,,canton,2,L,218,EC-L,ECU,EC,"Quilanga, Loja, Ecuador",17.84302331,4942.517458,923.0777117,0.18676266,-79.38329729,-4.343351136,85.46931408,55.71823829,202.433213
ECL1116,Ecuador,Loja,Olmedo,,canton,2,L,218,EC-L,ECU,EC,"Olmedo, Loja, Ecuador",40.51320654,5347.743263,1003.713827,0.18768923,-79.59704718,-3.936430173,41.4,19.16682371,90.21538462
ECM1301,Ecuador,Manabi,Portoviejo,,canton,2,M,218,EC-M,ECU,EC,"Portoviejo, Manabi, Ecuador",289.3393517,327821.4854,25057.84584,0.076437473,-80.36432228,-1.04108302,15.36331256,14.46189774,113.9715049
ECM1302,Ecuador,Manabi,Bolivar,,canton,2,M,218,EC-M,ECU,EC,"Bolivar, Manabi, Ecuador",75.72977627,47558.2995,4159.781229,0.087466985,-80.03392472,-0.909541046,48.72972973,34.21822692,209.5294118
ECM1303,Ecuador,Manabi,Chone,,canton,2,M,218,EC-M,ECU,EC,"Chone, Manabi, Ecuador",41.59374273,148656.0365,11533.81504,0.077587262,-80.11054044,-0.572697738,43.41233948,31.0318185,227.7959241
ECM1304,Ecuador,Manabi,El Carmen,,canton,2,M,218,EC-M,ECU,EC,"El Carmen, Manabi, Ecuador",63.61921394,130228.5309,8132.998824,0.062451743,-79.57119085,-0.435953087,37.42578125,28.29272387,177.7285156
ECM1305,Ecuador,Manabi,Flavio Alfaro,,canton,2,M,218,EC-M,ECU,EC,"Flavio Alfaro, Manabi, Ecuador",18.59672923,29457.2191,1935.051344,0.065690227,-79.81738606,-0.325030389,74.92793932,59.51621866,264.2408344
ECM1306,Ecuador,Manabi,Jipijapa,,canton,2,M,218,EC-M,ECU,EC,"Jipijapa, Manabi, Ecuador",48.49288504,83262.28362,10600.33476,0.12731257,-80.59088025,-1.445441291,39.73169303,32.65431645,192.1528998
ECM1307,Ecuador,Manabi,Junin,,canton,2,M,218,EC-M,ECU,EC,"Junin, Manabi, Ecuador",77.11043448,22439.13643,2184.848554,0.097367764,-80.19533893,-0.941620318,29.34353742,12.10830018,87.86054422
ECM1308,Ecuador,Manabi,Manta,,canton,2,M,218,EC-M,ECU,EC,"Manta, Manabi, Ecuador",740.0134904,255304.6542,16223.94168,0.06354738,-80.80345367,-1.02714727,10.97633136,11.72564806,87.45266272
ECM1309,Ecuador,Manabi,Montecristi,,canton,2,M,218,EC-M,ECU,EC,"Montecristi, Manabi, Ecuador",94.94968457,83650.6721,5272.298663,0.063027568,-80.69647086,-1.126840248,21.02181401,19.02984885,168.2881745
ECM1310,Ecuador,Manabi,Pajan,,canton,2,M,218,EC-M,ECU,EC,"Pajan, Manabi, Ecuador",34.17794923,43645.24117,5555.388792,0.12728509,-80.39784333,-1.661700947,66.16953125,49.71720231,204.6257813
ECM1311,Ecuador,Manabi,Pichincha,,canton,2,M,218,EC-M,ECU,EC,"Pichincha, Manabi, Ecuador",28.43472171,35799.31464,2437.939839,0.068100184,-79.76448907,-0.801582127,89.04375497,58.50034434,251.4327765
ECM1312,Ecuador,Manabi,Rocafuerte,,canton,2,M,218,EC-M,ECU,EC,"Rocafuerte, Manabi, Ecuador",121.7008774,39065.98165,3386.299241,0.086681537,-80.40582395,-0.905704589,14.42857143,9.744377791,92.19565217
ECM1313,Ecuador,Manabi,Santa Ana,,canton,2,M,218,EC-M,ECU,EC,"Santa Ana, Manabi, Ecuador",46.31273184,55482.65275,4525.144375,0.081559628,-80.21235857,-1.196131565,41.42131557,37.86836661,221.1457119
ECM1314,Ecuador,Manabi,Sucre,,canton,2,M,218,EC-M,ECU,EC,"Sucre, Manabi, Ecuador",75.05397647,59517.80334,5326.946653,0.089501739,-80.42880657,-0.743114133,33.67553866,18.06884947,153.269962
ECM1315,Ecuador,Manabi,Tosagua,,canton,2,M,218,EC-M,ECU,EC,"Tosagua, Manabi, Ecuador",103.2186226,45416.19395,3909.317038,0.086077601,-80.27130473,-0.780060699,17.04072398,11.83364154,106.8280543
ECM1316,Ecuador,Manabi,Veinticuatro De Mayo,,canton,2,M,218,EC-M,ECU,EC,"Veinticuatro De Mayo, Manabi, Ecuador",54.71227605,33648.04977,4457.714807,0.13248064,-80.37483353,-1.382946289,34.78733766,33.77968771,223.8766234
ECM1317,Ecuador,Manabi,Pedernales,,canton,2,M,218,EC-M,ECU,EC,"Pedernales, Manabi, Ecuador",28.22800637,63004.91021,3304.217786,0.052443814,-79.89259702,0.095177247,122.2524797,58.25332566,298.1199279
ECM1318,Ecuador,Manabi,Olmedo,,canton,2,M,218,EC-M,ECU,EC,"Olmedo, Manabi, Ecuador",39.14856244,11705.42017,1152.560929,0.098463863,-80.21353266,-1.36142379,54.68896321,35.80213037,208.9464883
ECM1319,Ecuador,Manabi,Puerto Lopez,,canton,2,M,218,EC-M,ECU,EC,"Puerto Lopez, Manabi, Ecuador",44.79703773,22712.09813,1494.971856,0.065822713,-80.75066709,-1.563571587,71.26166329,40.25107892,169.7058824
ECM1320,Ecuador,Manabi,Jama,,canton,2,M,218,EC-M,ECU,EC,"Jama, Manabi, Ecuador",39.79871111,26824.33129,1390.945314,0.051853869,-80.23060595,-0.221445655,67.88938715,16.83075883,144.4349776
ECM1321,Ecuador,Manabi,Jaramijo,,canton,2,M,218,EC-M,ECU,EC,"Jaramijo, Manabi, Ecuador",195.3668711,22076.45643,1081.243217,0.048977207,-80.60366363,-0.975674704,7.981818182,9.929996783,96.19090909
ECM1322,Ecuador,Manabi,San Vicente,,canton,2,M,218,EC-M,ECU,EC,"San Vicente, Manabi, Ecuador",29.76836585,24797.04875,2421.313119,0.097645216,-80.35920979,-0.47750891,40.76715686,15.68165328,124.8210784
ECN1501,Ecuador,Napo,Tena,,canton,2,N,218,EC-N,ECU,EC,"Tena, Napo, Ecuador",21.90924064,99949.9558,4350.811298,0.043529898,-77.37965936,-0.990224309,346.085758,266.020579,634.5646467
ECN1503,Ecuador,Napo,Archidona,,canton,2,N,218,EC-N,ECU,EC,"Archidona, Napo, Ecuador",11.88331624,42078.82282,2060.237097,0.048961375,-77.72789968,-0.732793799,317.9133258,277.0306546,801.8997741
ECN1504,Ecuador,Napo,El Chaco,,canton,2,N,218,EC-N,ECU,EC,"El Chaco, Napo, Ecuador",3.275150566,13392.09067,876.6184902,0.065457925,-77.67255694,-0.251041638,562.8702346,537.7780463,1275.581378
ECN1507,Ecuador,Napo,Quijos,,canton,2,N,218,EC-N,ECU,EC,"Quijos, Napo, Ecuador",5.57986552,10345.07067,781.240168,0.075518109,-77.90764328,-0.521307266,273.4889369,259.7251578,825.9384781
ECN1509,Ecuador,Napo,Carlos Julio Arosemena Tola,,canton,2,N,218,EC-N,ECU,EC,"Carlos Julio Arosemena Tola, Napo, Ecuador",10.41907496,6074.320701,429.6536071,0.07073278,-77.93998708,-1.164076244,437.1132075,268.328979,411.5780446
ECO0701,Ecuador,El Oro,Machala,,canton,2,O,218,EC-O,ECU,EC,"Machala, El Oro, Ecuador",727.834668,276577.1739,18181.23188,0.065736562,-79.94443049,-3.321131292,18.16710875,19.05516029,80.78779841
ECO0702,Ecuador,El Oro,Arenillas,,canton,2,O,218,EC-O,ECU,EC,"Arenillas, El Oro, Ecuador",35.33002931,33280.88761,2616.01632,0.078604162,-80.08943161,-3.599773526,35.39490446,22.37636579,95.51804671
ECO0703,Ecuador,El Oro,Atahualpa,,canton,2,O,218,EC-O,ECU,EC,"Atahualpa, El Oro, Ecuador",20.72308518,6714.2796,941.5245085,0.14022718,-79.71993022,-3.530859444,94.50461538,67.67208892,246.6184615
ECO0704,Ecuador,El Oro,Balsas,,canton,2,O,218,EC-O,ECU,EC,"Balsas, El Oro, Ecuador",96.55956972,7821.325148,638.3699259,0.081619151,-79.83766971,-3.768775132,36.24358974,26.43899589,214.525641
ECO0705,Ecuador,El Oro,Chilla,,canton,2,O,218,EC-O,ECU,EC,"Chilla, El Oro, Ecuador",7.601257673,2926.484204,438.4517439,0.14982201,-79.62754293,-3.441607261,114.0939948,82.07901868,273.9060052
ECO0706,Ecuador,El Oro,El Guabo,,canton,2,O,218,EC-O,ECU,EC,"El Guabo, El Oro, Ecuador",81.94319031,58343.5515,3479.948261,0.059645809,-79.78866374,-3.169314559,69.79320113,42.23172516,148.0679887
ECO0707,Ecuador,El Oro,Huaquillas,,canton,2,O,218,EC-O,ECU,EC,"Huaquillas, El Oro, Ecuador",750.5468934,57041.5639,3028.889725,0.053099696,-80.18681803,-3.461881165,23.36619718,20.38712981,62.53521127
ECO0708,Ecuador,El Oro,Marcabeli,,canton,2,O,218,EC-O,ECU,EC,"Marcabeli, El Oro, Ecuador",36.99245951,6325.710577,692.9504576,0.10954507,-79.93193378,-3.780013777,65.53448276,36.96604512,215.8448276
ECO0709,Ecuador,El Oro,Pasaje,,canton,2,O,218,EC-O,ECU,EC,"Pasaje, El Oro, Ecuador",157.328932,84328.30753,7110.16484,0.084315278,-79.73437724,-3.328738273,62.5,33.16117949,142.0313653
ECO0710,Ecuador,El Oro,Pinas,,canton,2,O,218,EC-O,ECU,EC,"Pinas, El Oro, Ecuador",41.81225369,30313.88393,3510.775234,0.1158141,-79.71309871,-3.703402951,55.04958678,32.26983805,125.1349862
ECO0711,Ecuador,El Oro,Portovelo,,canton,2,O,218,EC-O,ECU,EC,"Portovelo, El Oro, Ecuador",41.90249178,14079.23724,1508.176154,0.10712059,-79.50270931,-3.74089783,121.2275449,79.52585165,219.494012
ECO0712,Ecuador,El Oro,Santa Rosa,,canton,2,O,218,EC-O,ECU,EC,"Santa Rosa, El Oro, Ecuador",82.95042973,79134.70996,6296.312376,0.079564482,-79.90163492,-3.494881775,55.93186813,52.75070279,192.6395604
ECO0713,Ecuador,El Oro,Zaruma,,canton,2,O,218,EC-O,ECU,EC,"Zaruma, El Oro, Ecuador",36.62500357,27981.50272,3399.305174,0.12148401,-79.5812632,-3.61787095,60.89322917,31.99897856,185.5585938
ECO0714,Ecuador,El Oro,Las Lajas,,canton,2,O,218,EC-O,ECU,EC,"Las Lajas, El Oro, Ecuador",15.87667446,5636.219432,745.2106283,0.13221817,-80.06842328,-3.803663755,54.61142857,34.05564269,212.8114286
ECP1701,Ecuador,Pichincha,Quito,,canton,2,P,218,EC-P,ECU,EC,"Quito, Pichincha, Ecuador",569.3954891,2805980.97,211991.2812,0.075549796,-78.51915696,-0.103982749,59.49634592,46.63602722,165.0200974
ECP1702,Ecuador,Pichincha,Cayambe,,canton,2,P,218,EC-P,ECU,EC,"Cayambe, Pichincha, Ecuador",76.56685702,107117.033,7633.592611,0.071264043,-78.07464558,-0.004028858,87.99358517,79.03832422,253.7840342
ECP1703,Ecuador,Pichincha,Mejia,,canton,2,P,218,EC-P,ECU,EC,"Mejia, Pichincha, Ecuador",60.66588626,105558.6421,8379.320405,0.079380713,-78.62952785,-0.491961588,84.76066897,71.64393985,253.6418685
ECP1704,Ecuador,Pichincha,Pedro Moncayo,,canton,2,P,218,EC-P,ECU,EC,"Pedro Moncayo, Pichincha, Ecuador",107.2376198,42466.09746,3210.125004,0.075592652,-78.276755,0.052831707,27.4040404,20.41711155,129.459596
ECP1705,Ecuador,Pichincha,Ruminahui,,canton,2,P,218,EC-P,ECU,EC,"Ruminahui, Pichincha, Ecuador",662.374135,105317.4875,8327.349109,0.079069003,-78.4429632,-0.40122327,18.44099379,10.50498525,78.1552795
ECP1707,Ecuador,Pichincha,San Miguel De Los Bancos,,canton,2,P,218,EC-P,ECU,EC,"San Miguel De Los Bancos, Pichincha, Ecuador",22.25228896,21918.50462,1377.423558,0.06284295,-78.89382265,-0.038161312,81.50607287,55.89476582,155.3987854
ECP1708,Ecuador,Pichincha,Pedro Vicente Maldonado,,canton,2,P,218,EC-P,ECU,EC,"Pedro Vicente Maldonado, Pichincha, Ecuador",22.32217877,16362.15704,932.2678999,0.056977078,-79.05792181,0.148950047,79.00135685,31.63481489,169.6390773
ECP1709,Ecuador,Pichincha,Puerto Quito,,canton,2,P,218,EC-P,ECU,EC,"Puerto Quito, Pichincha, Ecuador",32.3297843,26154.7955,1683.386129,0.064362429,-79.23938294,0.155598736,73.12760736,32.52339136,164.4638037
ECR1201,Ecuador,Los Rios,Babahoyo,,canton,2,R,218,EC-R,ECU,EC,"Babahoyo, Los Rios, Ecuador",148.3189969,188068.4881,13466.50193,0.071604244,-79.55255206,-1.781253106,52.82488114,26.23438782,143.22187
ECR1202,Ecuador,Los Rios,Baba,,canton,2,R,218,EC-R,ECU,EC,"Baba, Los Rios, Ecuador",80.45769472,49240.10917,3843.787314,0.078062117,-79.66105844,-1.681029766,57.1503268,46.20103074,137.7941176
ECR1203,Ecuador,Los Rios,Montalvo,,canton,2,R,218,EC-R,ECU,EC,"Montalvo, Los Rios, Ecuador",70.1359674,29737.65018,2718.170327,0.091405012,-79.3173589,-1.804767396,59.91334895,32.99080583,117.1053864
ECR1204,Ecuador,Los Rios,Puebloviejo,,canton,2,R,218,EC-R,ECU,EC,"Puebloviejo, Los Rios, Ecuador",113.9030759,44080.49036,2732.586437,0.061990835,-79.54531069,-1.550220848,40.44702842,32.71976918,116.5839793
ECR1205,Ecuador,Los Rios,Quevedo,,canton,2,R,218,EC-R,ECU,EC,"Quevedo, Los Rios, Ecuador",585.8706847,212085.1879,13771.24477,0.064932607,-79.45718418,-1.044961855,13.10526316,8.322694691,60.19944598
ECR1206,Ecuador,Los Rios,Urdaneta,,canton,2,R,218,EC-R,ECU,EC,"Urdaneta, Los Rios, Ecuador",80.72146888,35598.16777,3213.499022,0.090271473,-79.38901122,-1.566205964,48.23181818,35.32307877,235.8136364
ECR1207,Ecuador,Los Rios,Ventanas,,canton,2,R,218,EC-R,ECU,EC,"Ventanas, Los Rios, Ecuador",130.4349032,81000.07492,5759.981226,0.071110815,-79.40918919,-1.410788025,39.99029126,26.61399116,93.54530744
ECR1208,Ecuador,Los Rios,Vinces,,canton,2,R,218,EC-R,ECU,EC,"Vinces, Los Rios, Ecuador",106.8724894,86673.5889,7542.853388,0.08702597,-79.78498096,-1.591008014,31.90976514,36.9049448,161.2719407
ECR1209,Ecuador,Los Rios,Palenque,,canton,2,R,218,EC-R,ECU,EC,"Palenque, Los Rios, Ecuador",40.31898482,27578.18562,2441.246598,0.088520929,-79.71540337,-1.334285156,63.51744186,55.46902202,162.8226744
ECR1210,Ecuador,Los Rios,Buena Fe,,canton,2,R,218,EC-R,ECU,EC,"Buena Fe, Los Rios, Ecuador",111.2366507,75418.44915,4403.79679,0.058391504,-79.54355495,-0.784107783,42.10882353,20.25589764,116.4147059
ECR1211,Ecuador,Los Rios,Valencia,,canton,2,R,218,EC-R,ECU,EC,"Valencia, Los Rios, Ecuador",46.6817442,53590.64234,3384.465536,0.063154042,-79.30663192,-0.777486558,96.48429319,38.42548098,244.9057592
ECR1212,Ecuador,Los Rios,Mocache,,canton,2,R,218,EC-R,ECU,EC,"Mocache, Los Rios, Ecuador",70.83824266,46611.56367,3844.495562,0.08247944,-79.5498435,-1.189670958,36.72685888,31.89299563,114.508346
ECR1213,Ecuador,Los Rios,Quinsaloma,,canton,2,R,218,EC-R,ECU,EC,"Quinsaloma, Los Rios, Ecuador",60.26213779,20067.29189,1619.26952,0.080691978,-79.32326719,-1.190985139,38.02670623,19.75425366,102.5133531
ECS1401,Ecuador,Morona Santiago,Morona,,canton,2,S,218,EC-S,ECU,EC,"Morona, Morona Santiago, Ecuador",9.983107261,54368.00214,2753.286379,0.050641671,-78.11533298,-2.209794652,657.9251012,563.5557408,788.6036069
ECS1402,Ecuador,Morona Santiago,Gualaquiza,,canton,2,S,218,EC-S,ECU,EC,"Gualaquiza, Morona Santiago, Ecuador",8.826416078,22666.23649,1393.571398,0.061482258,-78.65283109,-3.36481687,345.2217018,260.2339964,445.0757221
ECS1403,Ecuador,Morona Santiago,Limon Indanza,,canton,2,S,218,EC-S,ECU,EC,"Limon Indanza, Morona Santiago, Ecuador",6.014908138,12769.64998,1068.002649,0.083636016,-78.34805615,-3.038661199,431.270794,375.4772249,821.1639887
ECS1404,Ecuador,Morona Santiago,Palora,,canton,2,S,218,EC-S,ECU,EC,"Palora, Morona Santiago, Ecuador",5.44893668,9246.845545,636.9277483,0.068880543,-78.11304811,-1.671682548,392.1575544,317.6512396,486.478542
ECS1405,Ecuador,Morona Santiago,Santiago,,canton,2,S,218,EC-S,ECU,EC,"Santiago, Morona Santiago, Ecuador",7.430654193,12312.594,877.9805774,0.071307525,-78.35693601,-2.686447827,372.5419664,302.1841304,493.7589928
ECS1406,Ecuador,Morona Santiago,Sucua,,canton,2,S,218,EC-S,ECU,EC,"Sucua, Morona Santiago, Ecuador",23.10193884,24118.42415,1681.896831,0.069734938,-78.25609803,-2.460821088,342.7380038,223.3375228,358.4865643
ECS1407,Ecuador,Morona Santiago,Huamboya,,canton,2,S,218,EC-S,ECU,EC,"Huamboya, Morona Santiago, Ecuador",14.27177578,11046.35445,402.8830958,0.036472041,-77.95670642,-1.984254985,192.1494845,106.7797487,460.4420103
ECS1408,Ecuador,Morona Santiago,San Juan Bosco,,canton,2,S,218,EC-S,ECU,EC,"San Juan Bosco, Morona Santiago, Ecuador",4.190025282,5107.640818,324.2372694,0.063480832,-78.37595538,-3.256766025,732.3426002,673.0902706,1043.829926
ECS1409,Ecuador,Morona Santiago,Taisha,,canton,2,S,218,EC-S,ECU,EC,"Taisha, Morona Santiago, Ecuador",3.403204832,24482.65556,690.2080786,0.028191715,-77.39141503,-2.475640036,1129.901236,463.741193,781.2492013
ECS1410,Ecuador,Morona Santiago,Logrono,,canton,2,S,218,EC-S,ECU,EC,"Logrono, Morona Santiago, Ecuador",5.549408088,7586.040856,372.1274927,0.049054243,-78.04137722,-2.767118869,777.3391813,629.8699553,995.7090643
ECS1411,Ecuador,Morona Santiago,Pablo Sexto,,canton,2,S,218,EC-S,ECU,EC,"Pablo Sexto, Morona Santiago, Ecuador",1.521077994,2476.314974,138.5374026,0.055944983,-78.27584752,-1.858445799,646.3507371,569.915943,878.3353808
ECS1412,Ecuador,Morona Santiago,Tiwintza,,canton,2,S,218,EC-S,ECU,EC,"Tiwintza, Morona Santiago, Ecuador",6.792870297,9313.025177,297.0961461,0.031901143,-77.90815426,-2.984597299,288.5595325,196.3840254,549.6486486
ECSD0808,Ecuador,Sto. Domingo Tsachilas,La Concordia,,canton,2,SD,218,EC-SD,ECU,EC,"La Concordia, Sto. Domingo Tsachilas, Ecuador",144.0727616,54459.50387,3311.100384,0.060799312,-79.37476768,-0.042018851,34.16753927,17.07412141,102.2513089
ECSD2301,Ecuador,Sto. Domingo Tsachilas,Santo Domingo,,canton,2,SD,218,EC-SD,ECU,EC,"Santo Domingo, Sto. Domingo Tsachilas, Ecuador",120.4380889,484642.8696,29641.80757,0.061162166,-79.1768176,-0.306065078,41.35748071,37.06768008,235.2093602
ECSE2401,Ecuador,Santa Elena,Santa Elena,,canton,2,SE,218,EC-SE,ECU,EC,"Santa Elena, Santa Elena, Ecuador",43.95388396,185309.5748,14143.39801,0.076323085,-80.54234293,-2.179289056,76.445872,44.83062801,156.6105163
ECSE2402,Ecuador,Santa Elena,La Libertad,,canton,2,SE,218,EC-SE,ECU,EC,"La Libertad, Santa Elena, Ecuador",4072.455894,114028.765,6682.003655,0.058599282,-80.89511279,-2.234427144,3.64516129,4.628400699,19.74193548
ECSE2403,Ecuador,Santa Elena,Salinas,,canton,2,SE,218,EC-SE,ECU,EC,"Salinas, Santa Elena, Ecuador",1119.55057,95161.79847,5507.904507,0.057879366,-80.93484318,-2.241253249,11.44,6.227232073,36.44
ECT1801,Ecuador,Tungurahua,Ambato,,canton,2,T,218,EC-T,ECU,EC,"Ambato, Tungurahua, Ecuador",322.6671862,383005.9501,35847.38656,0.093594857,-78.74970178,-1.278342586,29.00926706,23.75982877,120.3403538
ECT1802,Ecuador,Tungurahua,Banos,,canton,2,T,218,EC-T,ECU,EC,"Banos, Tungurahua, Ecuador",18.73566594,23400.84675,2541.97121,0.10862732,-78.27339887,-1.336639181,242.340016,279.1520905,530.6319166
ECT1803,Ecuador,Tungurahua,Cevallos,,canton,2,T,218,EC-T,ECU,EC,"Cevallos, Tungurahua, Ecuador",434.3285821,9989.557388,1250.398117,0.12517053,-78.61247251,-1.350622074,4.956521739,4.29436906,42.73913043
ECT1804,Ecuador,Tungurahua,Mocha,,canton,2,T,218,EC-T,ECU,EC,"Mocha, Tungurahua, Ecuador",85.98676309,8598.676309,1252.414747,0.14565204,-78.69412934,-1.417509057,28.78,23.21111496,116.26
ECT1805,Ecuador,Tungurahua,Patate,,canton,2,T,218,EC-T,ECU,EC,"Patate, Tungurahua, Ecuador",41.86004889,15278.91785,1789.925712,0.11715003,-78.42498367,-1.27125835,88.0027248,64.16618245,176.2588556
ECT1806,Ecuador,Tungurahua,Quero,,canton,2,T,218,EC-T,ECU,EC,"Quero, Tungurahua, Ecuador",106.3652356,21698.50807,2449.30527,0.11287897,-78.61996357,-1.446177719,39.27722772,24.74376931,120.3415842
ECT1807,Ecuador,Tungurahua,Pelileo,,canton,2,T,218,EC-T,ECU,EC,"Pelileo, Tungurahua, Ecuador",274.8811678,65421.71794,6706.017519,0.10250445,-78.53192313,-1.360901783,18.01680672,12.38879324,79.80672269
ECT1808,Ecuador,Tungurahua,Pillaro,,canton,2,T,218,EC-T,ECU,EC,"Pillaro, Tungurahua, Ecuador",85.23913814,44750.54752,5443.156452,0.12163329,-78.44947552,-1.144374962,70.51515152,41.87337482,157.8882576
ECT1809,Ecuador,Tungurahua,Tisaleo,,canton,2,T,218,EC-T,ECU,EC,"Tisaleo, Tungurahua, Ecuador",198.642518,14103.61878,1571.09143,0.11139634,-78.68018305,-1.366495763,14.28169014,9.556889667,49.09859155
ECU2101,Ecuador,Sucumbios,Lago Agrio,,canton,2,U,218,EC-U,ECU,EC,"Lago Agrio, Sucumbios, Ecuador",35.61230577,131053.2853,5796.176675,0.044227634,-76.77665447,0.109839529,123.6487885,95.44410938,402.3223523
ECU2102,Ecuador,Sucumbios,Gonzalo Pizarro,,canton,2,U,218,EC-U,ECU,EC,"Gonzalo Pizarro, Sucumbios, Ecuador",4.667125895,12148.52871,721.2338637,0.059367999,-77.58708341,0.081758549,495.4274751,490.0566721,1193.071374
ECU2103,Ecuador,Sucumbios,Putumayo,,canton,2,U,218,EC-U,ECU,EC,"Putumayo, Sucumbios, Ecuador",3.308393148,13657.04692,664.6995336,0.04867081,-76.01134517,0.078973546,457.8011653,460.4583497,1403.284292
ECU2104,Ecuador,Sucumbios,Shushufindi,,canton,2,U,218,EC-U,ECU,EC,"Shushufindi, Sucumbios, Ecuador",21.21971866,62598.17004,2593.639535,0.041433152,-76.3899747,-0.406610748,278.6236851,153.8292001,385.9080421
ECU2105,Ecuador,Sucumbios,Sucumbios,,canton,2,U,218,EC-U,ECU,EC,"Sucumbios, Sucumbios, Ecuador",4.168421198,7386.442363,647.3217452,0.087636471,-77.62310123,0.402177618,526.1447887,570.9909949,868.8090141
ECU2106,Ecuador,Sucumbios,Cascales,,canton,2,U,218,EC-U,ECU,EC,"Cascales, Sucumbios, Ecuador",11.1140776,16193.21106,948.9743879,0.058603223,-77.23285079,0.145752216,357.6960986,288.6946891,829.3737166
ECU2107,Ecuador,Sucumbios,Cuyabeno,,canton,2,U,218,EC-U,ECU,EC,"Cuyabeno, Sucumbios, Ecuador",2.252059451,10190.56902,537.0447957,0.052700177,-75.87943834,-0.279670385,1121.876214,863.4275369,1194.822816
ECW2001,Ecuador,Galapagos,San Cristobal,,canton,2,W,218,EC-W,ECU,EC,"San Cristobal, Galapagos, Ecuador",10.21243942,9752.87965,485.8145806,0.049812425,-89.43037825,-0.826547667,3166.68932,91.49305138,576.1434736
ECW2002,Ecuador,Galapagos,Isabela,,canton,2,W,218,EC-W,ECU,EC,"Isabela, Galapagos, Ecuador",0.451206865,2825.457389,129.6599781,0.045889907,-91.1874719,-0.864388709,3853.473351,377.4781837,1163.840591
ECW2003,Ecuador,Galapagos,Santa Cruz,,canton,2,W,218,EC-W,ECU,EC,"Santa Cruz, Galapagos, Ecuador",9.850319212,20882.67673,1186.895688,0.056836378,-90.35858457,-0.627059055,3500.910872,165.510551,1314.536239
ECX0501,Ecuador,Cotopaxi,Latacunga,,canton,2,X,218,EC-X,ECU,EC,"Latacunga, Cotopaxi, Ecuador",126.1784005,204156.652,18976.32501,0.092949823,-78.58039256,-0.794443757,36.81122764,29.98407618,189.6724244
ECX0502,Ecuador,Cotopaxi,La Mana,,canton,2,X,218,EC-X,ECU,EC,"La Mana, Cotopaxi, Ecuador",65.29395992,49949.87934,3191.781776,0.063899688,-79.07512899,-0.68914445,141.1612058,100.2725232,337.1821756
ECX0503,Ecuador,Cotopaxi,Pangua,,canton,2,X,218,EC-X,ECU,EC,"Pangua, Cotopaxi, Ecuador",31.01521501,26083.79582,2669.326639,0.10233659,-79.13676846,-1.083113222,105.8446026,50.13299184,166.2040332
ECX0504,Ecuador,Cotopaxi,Pujili,,canton,2,X,218,EC-X,ECU,EC,"Pujili, Cotopaxi, Ecuador",54.57544546,83282.12977,8440.989574,0.10135415,-78.9005072,-0.991617771,83.92146597,52.24722419,177.4155759
ECX0505,Ecuador,Cotopaxi,Salcedo,,canton,2,X,218,EC-X,ECU,EC,"Salcedo, Cotopaxi, Ecuador",120.6242478,68273.32424,7304.80605,0.10699356,-78.5123886,-1.02877208,43.97153025,28.72896796,129.2935943
ECX0506,Ecuador,Cotopaxi,Saquisili,,canton,2,X,218,EC-X,ECU,EC,"Saquisili, Cotopaxi, Ecuador",120.5590817,28813.62053,2523.386083,0.087576151,-78.74278774,-0.824293048,21.14644351,15.39339382,119.6192469
ECX0507,Ecuador,Cotopaxi,Sigchos,,canton,2,X,218,EC-X,ECU,EC,"Sigchos, Cotopaxi, Ecuador",16.61931589,26358.23501,2792.300862,0.10593656,-78.92659899,-0.635525782,150.2479495,127.9496516,484.7173502
ECY1601,Ecuador,Pastaza,Pastaza,,canton,2,Y,218,EC-Y,ECU,EC,"Pastaza, Pastaza, Ecuador",3.706539135,86032.47987,4880.635217,0.056730147,-76.88362632,-1.897537912,1480.033006,1111.501623,2782.365607
ECY1602,Ecuador,Pastaza,Mera,,canton,2,Y,218,EC-Y,ECU,EC,"Mera, Pastaza, Ecuador",28.81262747,17777.39115,985.2519633,0.055421628,-77.98381658,-1.626749498,231.5298013,153.0159184,294.75
ECY1603,Ecuador,Pastaza,Santa Clara,,canton,2,Y,218,EC-Y,ECU,EC,"Santa Clara, Pastaza, Ecuador",13.69096576,4983.511537,322.3338159,0.064680055,-77.85076372,-1.281118168,174.4459459,82.30911834,178.0756757
ECY1604,Ecuador,Pastaza,Arajuno,,canton,2,Y,218,EC-Y,ECU,EC,"Arajuno, Pastaza, Ecuador",0.886347074,9156.85162,314.7139181,0.034369227,-77.24915092,-1.267974881,1001.13033,839.5747711,2029.087982
ECZ1901,Ecuador,Zamora Chinchipe,Zamora,,canton,2,Z,218,EC-Z,ECU,EC,"Zamora, Zamora Chinchipe, Ecuador",13.97683963,31070.5145,1954.331953,0.062899888,-78.98274443,-4.012517142,236.7878104,203.6146801,353.8984199
ECZ1902,Ecuador,Zamora Chinchipe,Chinchipe,,canton,2,Z,218,EC-Z,ECU,EC,"Chinchipe, Zamora Chinchipe, Ecuador",8.720383306,11772.51746,992.0356129,0.084267072,-79.16326396,-4.84835521,264.8683432,145.6171662,325.3720414
ECZ1903,Ecuador,Zamora Chinchipe,Nangaritza,,canton,2,Z,218,EC-Z,ECU,EC,"Nangaritza, Zamora Chinchipe, Ecuador",2.689037416,6359.573488,342.6735486,0.053883102,-78.76263222,-4.342915282,626.6892178,402.5113304,738.6122622
ECZ1904,Ecuador,Zamora Chinchipe,Yacuambi,,canton,2,Z,218,EC-Z,ECU,EC,"Yacuambi, Zamora Chinchipe, Ecuador",4.836480864,7095.117428,308.1045724,0.043424875,-78.96704521,-3.607535545,376.0230196,263.730083,536.5402844
ECZ1905,Ecuador,Zamora Chinchipe,Yantzaza,,canton,2,Z,218,EC-Z,ECU,EC,"Yantzaza, Zamora Chinchipe, Ecuador",18.93740884,22459.76689,1327.303218,0.059096929,-78.62952103,-3.795327155,233.2470289,161.7441051,324.1485569
ECZ1906,Ecuador,Zamora Chinchipe,El Pangui,,canton,2,Z,218,EC-Z,ECU,EC,"El Pangui, Zamora Chinchipe, Ecuador",14.05073392,10467.79677,643.6194097,0.061485663,-78.53558259,-3.622749028,182.6043069,109.1730775,254.9676985
ECZ1907,Ecuador,Zamora Chinchipe,Centinela Del Condor,,canton,2,Z,218,EC-Z,ECU,EC,"Centinela Del Condor, Zamora Chinchipe, Ecuador",25.45145803,8017.20928,600.7917418,0.074937768,-78.74906733,-3.935346157,111.933121,42.79490695,137.8057325
ECZ1908,Ecuador,Zamora Chinchipe,Palanda,,canton,2,Z,218,EC-Z,ECU,EC,"Palanda, Zamora Chinchipe, Ecuador",4.221876476,9862.303447,649.0909514,0.065815352,-79.09368038,-4.569397121,368.3842196,294.0712496,520.990566
ECZ1909,Ecuador,Zamora Chinchipe,Paquisha,,canton,2,Z,218,EC-Z,ECU,EC,"Paquisha, Zamora Chinchipe, Ecuador",11.97749428,4743.087735,211.7392337,0.044641644,-78.59550758,-3.944521238,208.9059406,103.605688,258.9084158
COANT05001,Colombia,Antioquia,Medellin,,Municipality,2,ANT,170,CO-ANT,COL,CO,"Medellin, Antioquia, Colombia",7023.286133,3111315.75,274802.9063,0.088323697,-75.61103058,6.257590294,8.611494064,9.531636238,44.40919495
COANT05002,Colombia,Antioquia,Abejorral,,Municipality,2,ANT,170,CO-ANT,COL,CO,"Abejorral, Antioquia, Colombia",48.06232071,28549.01953,2523.394531,0.08838813,-75.43847656,5.803728104,68.04047394,29.91739845,117.2630692
COANT05004,Colombia,Antioquia,Abriaqui,,Municipality,2,ANT,170,CO-ANT,COL,CO,"Abriaqui, Antioquia, Colombia",11.54019737,4004.44873,353.6877136,0.088323697,-76.08597565,6.627569199,389.4928894,193.6321564,377.8717957
COANT05021,Colombia,Antioquia,Alejandria,,Municipality,2,ANT,170,CO-ANT,COL,CO,"Alejandria, Antioquia, Colombia",34.27766037,5278.759277,466.239563,0.088323705,-75.09059906,6.365534306,85.69536591,49.40153503,200.3774872
COANT05030,Colombia,Antioquia,Amaga,,Municipality,2,ANT,170,CO-ANT,COL,CO,"Amaga, Antioquia, Colombia",383.9059143,36854.96875,3255.166992,0.088323697,-75.70800018,6.032921791,20.84210587,19.96796799,113.6736832
COANT05031,Colombia,Antioquia,Amalfi,,Municipality,2,ANT,170,CO-ANT,COL,CO,"Amalfi, Antioquia, Colombia",20.23906136,28860.90234,2549.101563,0.088323697,-74.98123932,6.977788925,287.4793091,173.3561096,567.6126099
COANT05034,Colombia,Antioquia,Andes,,Municipality,2,ANT,170,CO-ANT,COL,CO,"Andes, Antioquia, Colombia",120.4851074,56628,5002.116211,0.088332914,-75.92459106,5.623952389,264.9638367,153.7856445,249.3191528
COANT05036,Colombia,Antioquia,Angelopolis,,Municipality,2,ANT,170,CO-ANT,COL,CO,"Angelopolis, Antioquia, Colombia",119.659462,11487.30859,1014.601563,0.088323697,-75.71595001,6.121430397,41.87755203,22.13172722,60.57143021
COANT05038,Colombia,Antioquia,Angostura,,Municipality,2,ANT,170,CO-ANT,COL,CO,"Angostura, Antioquia, Colombia",50.54486084,20066.30859,1772.330688,0.088323705,-75.35831451,6.861498833,105.2474747,31.23582458,157.6515198
COANT05040,Colombia,Antioquia,Anori,,Municipality,2,ANT,170,CO-ANT,COL,CO,"Anori, Antioquia, Colombia",12.68733692,21149.79102,1868.027832,0.088323705,-75.10848999,7.193110943,312.0138245,184.6160278,547.6445923
COANT05042,Colombia,Antioquia,Santa Fe De Antioquia,,Municipality,2,ANT,170,CO-ANT,COL,CO,"Santa Fe De Antioquia, Antioquia, Colombia",52.26107788,32401.86719,2861.852783,0.088323697,-75.90426636,6.535711765,142.4225769,89.60408783,220.8677368
COANT05044,Colombia,Antioquia,Anza,,Municipality,2,ANT,170,CO-ANT,COL,CO,"Anza, Antioquia, Colombia",35.35297394,10605.89258,936.7516479,0.088323697,-75.91259003,6.308040142,147.3907318,66.11645508,173.7880859
COANT05045,Colombia,Antioquia,Apartado,,Municipality,2,ANT,170,CO-ANT,COL,CO,"Apartado, Antioquia, Colombia",287.1277771,181751.875,16051.97461,0.088318072,-76.56695557,7.896136284,143.3338623,73.11840057,185.2939301
COANT05051,Colombia,Antioquia,Arboletes,,Municipality,2,ANT,170,CO-ANT,COL,CO,"Arboletes, Antioquia, Colombia",45.18294907,40303.19141,3555.210693,0.088211641,-76.41477966,8.611394882,189.2399139,66.70988464,359.7062683
COANT05055,Colombia,Antioquia,Argelia,,Municipality,2,ANT,170,CO-ANT,COL,CO,"Argelia, Antioquia, Colombia",48.13737488,13863.56445,1225.582764,0.08840315,-75.09469604,5.708114624,329.8675842,157.0074158,445.2717896
COANT05059,Colombia,Antioquia,Armenia,,Municipality,2,ANT,170,CO-ANT,COL,CO,"Armenia, Antioquia, Colombia",56.40057373,7162.873047,632.6514282,0.088323697,-75.80995178,6.163683891,56.8139534,35.44878387,159.7596893
COANT05079,Colombia,Antioquia,Barbosa,,Municipality,2,ANT,170,CO-ANT,COL,CO,"Barbosa, Antioquia, Colombia",239.5109711,57961.65234,5119.387695,0.088323705,-75.32923889,6.443418026,31.27530289,12.03284264,72.4777298
COANT05086,Colombia,Antioquia,Belmira,,Municipality,2,ANT,170,CO-ANT,COL,CO,"Belmira, Antioquia, Colombia",24.98408508,8794.398438,776.7537842,0.088323697,-75.65385437,6.653662682,106.9517059,47.2283287,160.0113678
COANT05088,Colombia,Antioquia,Bello,,Municipality,2,ANT,170,CO-ANT,COL,CO,"Bello, Antioquia, Colombia",2987.150391,510802.7188,45115.98438,0.088323697,-75.58973694,6.358840942,13.3081398,16.63404846,71.29650879
COANT05091,Colombia,Antioquia,Betania,,Municipality,2,ANT,170,CO-ANT,COL,CO,"Betania, Antioquia, Colombia",72.69855499,15630.19043,1380.059204,0.088294461,-75.9868927,5.727081299,271.0414734,169.066452,281.2580566
COANT05093,Colombia,Antioquia,Betulia,,Municipality,2,ANT,170,CO-ANT,COL,CO,"Betulia, Antioquia, Colombia",71.65192413,21997.13867,1942.868774,0.088323705,-75.95648956,6.185783386,128.4660187,44.74370956,158.5048523
COANT05101,Colombia,Antioquia,Ciudad Bolivar,,Municipality,2,ANT,170,CO-ANT,COL,CO,"Ciudad Bolivar, Antioquia, Colombia",124.7151337,38412.26172,3388.488525,0.088213719,-76.01065063,5.840995789,172.6852417,51.98648453,117.3147507
COANT05107,Colombia,Antioquia,Briceno,,Municipality,2,ANT,170,CO-ANT,COL,CO,"Briceno, Antioquia, Colombia",28.12667465,12375.73633,1093.070801,0.088323697,-75.56223297,7.111788273,172.7730408,91.19124603,357.2876282
COANT05113,Colombia,Antioquia,Buritica,,Municipality,2,ANT,170,CO-ANT,COL,CO,"Buritica, Antioquia, Colombia",23.10977173,9659.884766,853.1967163,0.088323697,-75.9120636,6.809064865,163.5611572,69.24694824,179.9400482
COANT05120,Colombia,Antioquia,Caceres,,Municipality,2,ANT,170,CO-ANT,COL,CO,"Caceres, Antioquia, Colombia",18.12241745,40268.01172,3556.261963,0.088314816,-75.22369385,7.665154934,169.1685486,101.0150146,470.2905579
COANT05125,Colombia,Antioquia,Caicedo,,Municipality,2,ANT,170,CO-ANT,COL,CO,"Caicedo, Antioquia, Colombia",46.17395782,10850.88086,958.3898926,0.088323697,-75.99351501,6.423463821,196.7004242,111.1593628,328.6455688
COANT05129,Colombia,Antioquia,Caldas,,Municipality,2,ANT,170,CO-ANT,COL,CO,"Caldas, Antioquia, Colombia",591.3980713,92258.09375,8148.576172,0.088323697,-75.6264267,6.054446697,27.07006454,21.08140755,84.75159454
COANT05134,Colombia,Antioquia,Campamento,,Municipality,2,ANT,170,CO-ANT,COL,CO,"Campamento, Antioquia, Colombia",55.28278732,13157.30371,1162.101685,0.088323697,-75.28765869,7.036017418,191.3401642,48.58777618,144.9098358
COANT05138,Colombia,Antioquia,Canasgordas,,Municipality,2,ANT,170,CO-ANT,COL,CO,"Canasgordas, Antioquia, Colombia",54.63905716,23330.87695,2060.669434,0.088323705,-76.02689362,6.814949989,219.4089813,86.47207642,231.6832123
COANT05142,Colombia,Antioquia,Caracoli,,Municipality,2,ANT,170,CO-ANT,COL,CO,"Caracoli, Antioquia, Colombia",22.15796089,6802.494141,600.8214111,0.088323697,-74.73355103,6.337974072,154.3059235,41.52172852,153.6151276
COANT05145,Colombia,Antioquia,Caramanta,,Municipality,2,ANT,170,CO-ANT,COL,CO,"Caramanta, Antioquia, Colombia",71.45082855,7788.140137,691.3984985,0.088775814,-75.63082123,5.55527544,67.58036041,23.48455238,90.30357361
COANT05147,Colombia,Antioquia,Carepa,,Municipality,2,ANT,170,CO-ANT,COL,CO,"Carepa, Antioquia, Colombia",136.2080841,61021.22266,5388.907715,0.088312022,-76.65668488,7.789165974,95.64615631,62.8972168,207.4175873
COANT05148,Colombia,Antioquia,El Carmen De Viboral,,Municipality,2,ANT,170,CO-ANT,COL,CO,"El Carmen De Viboral, Antioquia, Colombia",117.7065353,58970.97266,5208.534668,0.088323705,-75.26353455,5.978078842,190.1330719,108.2916336,207.6492004
COANT05150,Colombia,Antioquia,Carolina,,Municipality,2,ANT,170,CO-ANT,COL,CO,"Carolina, Antioquia, Colombia",29.28147888,5153.540039,455.1797485,0.088323705,-75.3059082,6.754821301,118.4463272,49.23662949,155.2881317
COANT05154,Colombia,Antioquia,Caucasia,,Municipality,2,ANT,170,CO-ANT,COL,CO,"Caucasia, Antioquia, Colombia",72.59638214,122179.7109,10790.30664,0.088315047,-75.03501892,7.867941856,108.8967361,58.62026978,245.3970337
COANT05172,Colombia,Antioquia,Chigorodo,,Municipality,2,ANT,170,CO-ANT,COL,CO,"Chigorodo, Antioquia, Colombia",96.34249115,81987.46094,7236.255859,0.088260517,-76.63964081,7.631665707,108.4894638,81.39868164,216.6686249
COANT05190,Colombia,Antioquia,Cisneros,,Municipality,2,ANT,170,CO-ANT,COL,CO,"Cisneros, Antioquia, Colombia",242.5855103,13099.61719,1157.006714,0.088323705,-75.08254242,6.550065517,71.25454712,28.60481262,126.6181793
COANT05197,Colombia,Antioquia,Cocorna,,Municipality,2,ANT,170,CO-ANT,COL,CO,"Cocorna, Antioquia, Colombia",72.88957977,20919.31055,1847.670898,0.088323697,-75.16015625,6.0055933,76.8263855,43.08620071,100.6076355
COANT05206,Colombia,Antioquia,Concepcion,,Municipality,2,ANT,170,CO-ANT,COL,CO,"Concepcion, Antioquia, Colombia",30.31107521,7183.724609,634.4931641,0.088323705,-75.21785736,6.376106262,71.74893951,31.44995308,104.7914886
COANT05209,Colombia,Antioquia,Concordia,,Municipality,2,ANT,170,CO-ANT,COL,CO,"Concordia, Antioquia, Colombia",102.2506561,30266.19336,2673.222168,0.088323697,-75.90014648,6.057468891,75.15358734,26.68102264,100.3685989
COANT05212,Colombia,Antioquia,Copacabana,,Municipality,2,ANT,170,CO-ANT,COL,CO,"Copacabana, Antioquia, Colombia",1202.764648,95018.40625,8392.376953,0.088323697,-75.50075531,6.351882935,4.387499809,6.377793312,41.9375
COANT05234,Colombia,Antioquia,Dabeiba,,Municipality,2,ANT,170,CO-ANT,COL,CO,"Dabeiba, Antioquia, Colombia",14.09672356,32521.14063,2871.453369,0.088294975,-76.31426239,6.992243767,566.0290527,389.9927368,602.6155396
COANT05237,Colombia,Antioquia,Donmatias,,Municipality,2,ANT,170,CO-ANT,COL,CO,"Donmatias, Antioquia, Colombia",103.3184662,24486.47656,2162.736084,0.088323697,-75.36682892,6.505411625,31.35146523,15.1550436,95.65690613
COANT05240,Colombia,Antioquia,Ebejico,,Municipality,2,ANT,170,CO-ANT,COL,CO,"Ebejico, Antioquia, Colombia",61.18021393,17130.45898,1513.025513,0.088323697,-75.78330994,6.326445103,56.21708298,27.07308388,88.71530151
COANT05250,Colombia,Antioquia,El Bagre,,Municipality,2,ANT,170,CO-ANT,COL,CO,"El Bagre, Antioquia, Colombia",34.62856674,63751.19141,5630.056152,0.088312954,-74.66427612,7.704633236,509.1471252,326.7626648,506.6416931
COANT05264,Colombia,Antioquia,Entrerrios,,Municipality,2,ANT,170,CO-ANT,COL,CO,"Entrerrios, Antioquia, Colombia",46.13255692,11579.27148,1022.724121,0.088323705,-75.55912781,6.594655991,69.09842682,28.82407379,140.897644
COANT05266,Colombia,Antioquia,Envigado,,Municipality,2,ANT,170,CO-ANT,COL,CO,"Envigado, Antioquia, Colombia",2698.927734,251000.2656,22169.27148,0.088323697,-75.54686737,6.154395103,5.787233829,8.410822868,54.05319214
COANT05282,Colombia,Antioquia,Fredonia,,Municipality,2,ANT,170,CO-ANT,COL,CO,"Fredonia, Antioquia, Colombia",109.3444214,33131.35938,2926.284424,0.088323705,-75.67926025,5.887702942,42.45602417,25.8439579,143.4462585
COANT05284,Colombia,Antioquia,Frontino,,Municipality,2,ANT,170,CO-ANT,COL,CO,"Frontino, Antioquia, Colombia",17.78895378,28960.41602,2557.891113,0.088323697,-76.3319931,6.691364765,734.920105,546.6315308,768.7295532
COANT05306,Colombia,Antioquia,Giraldo,,Municipality,2,ANT,170,CO-ANT,COL,CO,"Giraldo, Antioquia, Colombia",48.14965057,5296.461426,467.8030701,0.088323697,-75.94804382,6.663095951,106.6517868,46.7923584,142.3303528
COANT05308,Colombia,Antioquia,Girardota,,Municipality,2,ANT,170,CO-ANT,COL,CO,"Girardota, Antioquia, Colombia",618.7357178,60636.10156,5355.604492,0.088323697,-75.4479599,6.37974596,11.58947372,7.079885483,45.79999924
COANT05310,Colombia,Antioquia,Gomez Plata,,Municipality,2,ANT,170,CO-ANT,COL,CO,"Gomez Plata, Antioquia, Colombia",41.21599197,16074.2373,1419.736084,0.088323697,-75.19270325,6.709562778,99.97953796,34.81738281,114.5089493
COANT05313,Colombia,Antioquia,Granada,,Municipality,2,ANT,170,CO-ANT,COL,CO,"Granada, Antioquia, Colombia",61.91622543,13993.06738,1235.919434,0.088323697,-75.12763977,6.123380661,51.13122177,30.34965706,122.8235321
COANT05315,Colombia,Antioquia,Guadalupe,,Municipality,2,ANT,170,CO-ANT,COL,CO,"Guadalupe, Antioquia, Colombia",60.90219879,8526.307617,753.0750122,0.088323697,-75.225914,6.861576557,139.7536163,31.11594772,102.5652161
COANT05318,Colombia,Antioquia,Guarne,,Municipality,2,ANT,170,CO-ANT,COL,CO,"Guarne, Antioquia, Colombia",318.3464966,57620.71484,5089.274414,0.088323697,-75.43730927,6.266625881,11.83240223,7.785691738,59.47486115
COANT05321,Colombia,Antioquia,Guatape,,Municipality,2,ANT,170,CO-ANT,COL,CO,"Guatape, Antioquia, Colombia",85.49409485,8378.420898,740.0131226,0.088323697,-75.15851593,6.2457757,58.71875,24.25756264,64.60416412
COANT05347,Colombia,Antioquia,Heliconia,,Municipality,2,ANT,170,CO-ANT,COL,CO,"Heliconia, Antioquia, Colombia",72.1364212,9738.416992,860.1330566,0.088323705,-75.74971008,6.214511871,47.74074173,44.50993729,145.7481537
COANT05353,Colombia,Antioquia,Hispania,,Municipality,2,ANT,170,CO-ANT,COL,CO,"Hispania, Antioquia, Colombia",103.6136703,6942.116211,613.1533813,0.088323697,-75.9066925,5.797039032,73.12307739,7.574273586,40.46154022
COANT05360,Colombia,Antioquia,Itagui,,Municipality,2,ANT,170,CO-ANT,COL,CO,"Itagui, Antioquia, Colombia",13049.69043,300142.875,26509.73047,0.088323705,-75.61420441,6.179279327,0.239999995,2.135699987,16.20000076
COANT05361,Colombia,Antioquia,Ituango,,Municipality,2,ANT,170,CO-ANT,COL,CO,"Ituango, Antioquia, Colombia",12.4283886,41585.38672,3668.641113,0.088219479,-75.85034943,7.302946091,557.6422119,414.3835449,737.6125488
COANT05364,Colombia,Antioquia,Jardin,,Municipality,2,ANT,170,CO-ANT,COL,CO,"Jardin, Antioquia, Colombia",86.08440399,20488.08789,1812.094604,0.088446252,-75.81842804,5.574444294,140.6949158,55.4219017,190.7203369
COANT05368,Colombia,Antioquia,Jerico,,Municipality,2,ANT,170,CO-ANT,COL,CO,"Jerico, Antioquia, Colombia",75.41738892,18175.58984,1605.335327,0.088323697,-75.76488495,5.76982069,76.20746613,32.62892151,139.6597443
COANT05376,Colombia,Antioquia,La Ceja,,Municipality,2,ANT,170,CO-ANT,COL,CO,"La Ceja, Antioquia, Colombia",402.7417603,62827.71484,5549.17627,0.088323697,-75.43087006,5.992524624,29.51898766,10.83708572,68.38607788
COANT05380,Colombia,Antioquia,La Estrella,,Municipality,2,ANT,170,CO-ANT,COL,CO,"La Estrella, Antioquia, Colombia",1905.226929,83829.98438,7404.174805,0.088323705,-75.6489563,6.137595654,6.772727489,7.609225273,35.65909195
COANT05390,Colombia,Antioquia,La Pintada,,Municipality,2,ANT,170,CO-ANT,COL,CO,"La Pintada, Antioquia, Colombia",155.1874084,9776.806641,866.3987427,0.088617764,-75.60220337,5.746583939,31.42622948,8.994260788,52.73770523
COANT05400,Colombia,Antioquia,La Union,,Municipality,2,ANT,170,CO-ANT,COL,CO,"La Union, Antioquia, Colombia",124.9995346,24249.91016,2141.841797,0.088323697,-75.35429382,5.940434456,41.61224365,12.7873354,76.62245178
COANT05411,Colombia,Antioquia,Liborina,,Municipality,2,ANT,170,CO-ANT,COL,CO,"Liborina, Antioquia, Colombia",51.67826462,13126.27832,1159.36145,0.088323697,-75.78299713,6.723990917,128.9274139,51.29992676,131.9032288
COANT05425,Colombia,Antioquia,Maceo,,Municipality,2,ANT,170,CO-ANT,COL,CO,"Maceo, Antioquia, Colombia",22.55879784,10264.25293,906.5767822,0.088323697,-74.71411133,6.534573555,139.5178528,32.04874802,140.7946472
COANT05440,Colombia,Antioquia,Marinilla,,Municipality,2,ANT,170,CO-ANT,COL,CO,"Marinilla, Antioquia, Colombia",461.0816345,64551.42969,5701.420898,0.088323697,-75.30487823,6.185204983,8.633093834,8.055212021,53.68345261
COANT05467,Colombia,Antioquia,Montebello,,Municipality,2,ANT,170,CO-ANT,COL,CO,"Montebello, Antioquia, Colombia",112.1347122,10092.12402,891.3737183,0.088323697,-75.51972961,5.916853905,39.35555649,16.4340744,59.81111145
COANT05475,Colombia,Antioquia,Murindo,,Municipality,2,ANT,170,CO-ANT,COL,CO,"Murindo, Antioquia, Colombia",3.547579288,5278.797852,465.2833862,0.088141918,-76.70861053,6.828773975,1333.565918,860.3103027,1235.213745
COANT05480,Colombia,Antioquia,Mutata,,Municipality,2,ANT,170,CO-ANT,COL,CO,"Mutata, Antioquia, Colombia",15.1480875,19222.92188,1695.786499,0.088216893,-76.4630661,7.329557896,293.5015869,265.0197754,697.991333
COANT05483,Colombia,Antioquia,Narino,,Municipality,2,ANT,170,CO-ANT,COL,CO,"Narino, Antioquia, Colombia",58.60039902,21740.74805,1925.807861,0.088580571,-75.19457245,5.581275463,324.412384,159.0034027,390.8921814
COANT05490,Colombia,Antioquia,Necocli,,Municipality,2,ANT,170,CO-ANT,COL,CO,"Necocli, Antioquia, Colombia",43.55419159,64024.66016,5654.89502,0.088323705,-76.67699432,8.493728638,169.0928802,40.35024643,235.2115326
COANT05495,Colombia,Antioquia,Nechi,,Municipality,2,ANT,170,CO-ANT,COL,CO,"Nechi, Antioquia, Colombia",26.49882698,29175.20898,2575.835693,0.088288508,-74.79241943,7.990467548,289.8163757,147.0020142,364.3168335
COANT05501,Colombia,Antioquia,Olaya,,Municipality,2,ANT,170,CO-ANT,COL,CO,"Olaya, Antioquia, Colombia",43.29839325,4416.436035,390.0759583,0.088323697,-75.77567291,6.611418247,106.1730804,39.50383759,112.8173065
COANT05541,Colombia,Antioquia,Penol,,Municipality,2,ANT,170,CO-ANT,COL,CO,"Penol, Antioquia, Colombia",157.3587646,21558.15039,1904.095703,0.088323705,-75.22351074,6.232396603,32.8394165,14.26774883,67.03649902
COANT05543,Colombia,Antioquia,Peque,,Municipality,2,ANT,170,CO-ANT,COL,CO,"Peque, Antioquia, Colombia",25.97982025,13301.66797,1174.852539,0.088323697,-75.88968658,7.044179916,343.6174622,174.7212524,314.0427246
COANT05576,Colombia,Antioquia,Pueblorrico,,Municipality,2,ANT,170,CO-ANT,COL,CO,"Pueblorrico, Antioquia, Colombia",129.9665985,11567.02637,1021.642578,0.088323697,-75.86076355,5.80970192,77.71910095,22.48734283,97.67415619
COANT05579,Colombia,Antioquia,Puerto Berrio,,Municipality,2,ANT,170,CO-ANT,COL,CO,"Puerto Berrio, Antioquia, Colombia",36.90641785,53292.86719,4712.729492,0.088430777,-74.52873993,6.48192215,138.3535919,44.21305466,225.3722382
COANT05585,Colombia,Antioquia,Puerto Nare,,Municipality,2,ANT,170,CO-ANT,COL,CO,"Puerto Nare, Antioquia, Colombia",32.93613434,26085.41797,2339.836914,0.089699037,-74.70317841,6.12653923,106.8473282,58.4901123,288.2239075
COANT05591,Colombia,Antioquia,Puerto Triunfo,,Municipality,2,ANT,170,CO-ANT,COL,CO,"Puerto Triunfo, Antioquia, Colombia",51.97595978,22661.51953,2021.032227,0.089183435,-74.68619537,5.95483017,58.50691223,30.90889359,170.6152039
COANT05604,Colombia,Antioquia,Remedios,,Municipality,2,ANT,170,CO-ANT,COL,CO,"Remedios, Antioquia, Colombia",13.39278507,31352.50977,2768.873779,0.088314265,-74.55865479,6.997267246,280.8487549,175.8076172,793.1056519
COANT05607,Colombia,Antioquia,Retiro,,Municipality,2,ANT,170,CO-ANT,COL,CO,"Retiro, Antioquia, Colombia",63.03855896,18281.18164,1614.661621,0.088323697,-75.51573944,6.053444386,38.06315613,20.49443626,102.2982483
COANT05615,Colombia,Antioquia,Rionegro,,Municipality,2,ANT,170,CO-ANT,COL,CO,"Rionegro, Antioquia, Colombia",608.2368774,140502.7188,12409.71973,0.088323697,-75.41075897,6.150785923,8.404254913,6.75935173,45.36170197
COANT05628,Colombia,Antioquia,Sabanalarga,,Municipality,2,ANT,170,CO-ANT,COL,CO,"Sabanalarga, Antioquia, Colombia",37.07494354,11752.75684,1038.046997,0.088323705,-75.7922287,6.9010005,168.509552,62.8884697,163.3726044
COANT05631,Colombia,Antioquia,Sabaneta,,Municipality,2,ANT,170,CO-ANT,COL,CO,"Sabaneta, Antioquia, Colombia",4211.037109,67376.59375,5950.950195,0.088323705,-75.6088028,6.138305187,1.588235259,4.524445534,34.58823395
COANT05642,Colombia,Antioquia,Salgar,,Municipality,2,ANT,170,CO-ANT,COL,CO,"Salgar, Antioquia, Colombia",74.83893585,24996.20508,2207.325928,0.088306442,-75.98136902,5.970502377,98.61904907,33.29872513,103.9583359
COANT05647,Colombia,Antioquia,San Andres De Cuerquia,,Municipality,2,ANT,170,CO-ANT,COL,CO,"San Andres De Cuerquia, Antioquia, Colombia",39.84164047,10119.77637,893.8161011,0.088323697,-75.66577911,6.918427467,133.4212646,30.96645164,101.6063004
COANT05649,Colombia,Antioquia,San Carlos,,Municipality,2,ANT,170,CO-ANT,COL,CO,"San Carlos, Antioquia, Colombia",26.32741737,22167.68555,1957.931885,0.088323697,-74.90732574,6.193789482,125.07547,56.45043564,200.425705
COANT05652,Colombia,Antioquia,San Francisco,,Municipality,2,ANT,170,CO-ANT,COL,CO,"San Francisco, Antioquia, Colombia",22.09214401,9322.884766,823.4316406,0.088323697,-74.97603607,5.879505634,192.4452362,133.7226105,398.8118896
COANT05656,Colombia,Antioquia,San Jeronimo,,Municipality,2,ANT,170,CO-ANT,COL,CO,"San Jeronimo, Antioquia, Colombia",86.2735672,16305.7041,1440.180054,0.088323697,-75.70310974,6.43830061,43.08947372,39.03896713,191.4052582
COANT05658,Colombia,Antioquia,San Jose De La Montana,,Municipality,2,ANT,170,CO-ANT,COL,CO,"San Jose De La Montana, Antioquia, Colombia",29.57521629,4377.131836,386.6044922,0.088323705,-75.67771149,6.823258877,126.453331,36.93407822,157.8399963
COANT05659,Colombia,Antioquia,San Juan De Uraba,,Municipality,2,ANT,170,CO-ANT,COL,CO,"San Juan De Uraba, Antioquia, Colombia",94.38170624,28125.74805,2484.170166,0.088323705,-76.53248596,8.707141876,140.5306091,53.10797882,376.54422
COANT05660,Colombia,Antioquia,San Luis,,Municipality,2,ANT,170,CO-ANT,COL,CO,"San Luis, Antioquia, Colombia",28.02938843,13986.66406,1235.353882,0.088323697,-74.96200562,6.01451683,99.81999969,66.22455597,181.6799927
COANT05664,Colombia,Antioquia,San Pedro De Los Milagros,,Municipality,2,ANT,170,CO-ANT,COL,CO,"San Pedro De Los Milagros, Antioquia, Colombia",123.4713821,32349.50391,2857.227783,0.088323697,-75.56248474,6.458666325,28.5348835,25.89571381,155.6589203
COANT05665,Colombia,Antioquia,San Pedro De Uraba,,Municipality,2,ANT,170,CO-ANT,COL,CO,"San Pedro De Uraba, Antioquia, Colombia",55.64811707,39231.92188,3455.197754,0.088071078,-76.31664276,8.379157066,143.6930695,44.33744431,223.3295593
COANT05667,Colombia,Antioquia,San Rafael,,Municipality,2,ANT,170,CO-ANT,COL,CO,"San Rafael, Antioquia, Colombia",44.16265488,18901.61719,1669.460693,0.088323697,-74.99858856,6.310744762,98.30535889,48.87414932,199.3683014
COANT05670,Colombia,Antioquia,San Roque,,Municipality,2,ANT,170,CO-ANT,COL,CO,"San Roque, Antioquia, Colombia",50.07395172,24686.45703,2180.39917,0.088323697,-74.93186188,6.448675156,112.7802429,28.26956558,124.9334641
COANT05674,Colombia,Antioquia,San Vicente Ferrer,,Municipality,2,ANT,170,CO-ANT,COL,CO,"San Vicente Ferrer, Antioquia, Colombia",103.7212219,27901.00781,2464.320313,0.088323705,-75.32740021,6.310387611,33.72426605,19.96419334,116.9705887
COANT05679,Colombia,Antioquia,Santa Barbara,,Municipality,2,ANT,170,CO-ANT,COL,CO,"Santa Barbara, Antioquia, Colombia",137.0955505,31257.7832,2760.802979,0.088323697,-75.58330536,5.878984928,39.26200867,17.62628555,79.751091
COANT05686,Colombia,Antioquia,Santa Rosa De Osos,,Municipality,2,ANT,170,CO-ANT,COL,CO,"Santa Rosa De Osos, Antioquia, Colombia",40.19244766,41036.48828,3624.494385,0.088323697,-75.43814087,6.67582798,69.91732025,26.15295029,142.2952728
COANT05690,Colombia,Antioquia,Santo Domingo,,Municipality,2,ANT,170,CO-ANT,COL,CO,"Santo Domingo, Antioquia, Colombia",52.55015564,16500.74805,1457.407104,0.088323697,-75.14260101,6.481044292,69.39936066,41.33199692,185.1693268
COANT05697,Colombia,Antioquia,El Santuario,,Municipality,2,ANT,170,CO-ANT,COL,CO,"El Santuario, Antioquia, Colombia",386.9925537,36764.29297,3247.158203,0.088323697,-75.25212097,6.124209404,10.83333302,12.55767155,91.33333588
COANT05736,Colombia,Antioquia,Segovia,,Municipality,2,ANT,170,CO-ANT,COL,CO,"Segovia, Antioquia, Colombia",37.34046173,49476.11328,4368.823242,0.088301666,-74.62164307,7.266923428,425.6988831,322.8664551,841.2052612
COANT05756,Colombia,Antioquia,Sonson,,Municipality,2,ANT,170,CO-ANT,COL,CO,"Sonson, Antioquia, Colombia",34.16706467,54052.29688,4779.786133,0.088428915,-75.05935669,5.762503624,184.4219208,115.8256149,337.7770691
COANT05761,Colombia,Antioquia,Sopetran,,Municipality,2,ANT,170,CO-ANT,COL,CO,"Sopetran, Antioquia, Colombia",73.44243622,18874.70703,1667.083862,0.088323697,-75.74581146,6.52016449,62.77165222,28.96879959,138.7559052
COANT05789,Colombia,Antioquia,Tamesis,,Municipality,2,ANT,170,CO-ANT,COL,CO,"Tamesis, Antioquia, Colombia",76.45095825,22553.0332,1991.973877,0.088323988,-75.70980072,5.673758507,103.9966583,50.11693573,117.0200653
COANT05790,Colombia,Antioquia,Taraza,,Municipality,2,ANT,170,CO-ANT,COL,CO,"Taraza, Antioquia, Colombia",29.02685547,39012.09375,3445.589355,0.08832106,-75.40189362,7.488875866,243.7637482,179.878479,725.2562866
COANT05792,Colombia,Antioquia,Tarso,,Municipality,2,ANT,170,CO-ANT,COL,CO,"Tarso, Antioquia, Colombia",71.94555664,10072.37793,889.6296997,0.088323705,-75.82871246,5.871064663,67.03520966,16.31850052,63.28873062
COANT05809,Colombia,Antioquia,Titiribi,,Municipality,2,ANT,170,CO-ANT,COL,CO,"Titiribi, Antioquia, Colombia",111.5139389,18622.82813,1644.837036,0.088323697,-75.79965973,6.058350086,42.61077881,28.94234085,133.4490967
COANT05819,Colombia,Antioquia,Toledo,,Municipality,2,ANT,170,CO-ANT,COL,CO,"Toledo, Antioquia, Colombia",53.45466995,7804.381348,689.3118286,0.088323697,-75.71363068,7.016396999,177.836731,53.98096085,184.1564636
COANT05837,Colombia,Antioquia,Turbo,,Municipality,2,ANT,170,CO-ANT,COL,CO,"Turbo, Antioquia, Colombia",48.32939529,165914.8125,14649.20801,0.088293552,-76.72389221,7.998062134,159.1571503,117.08535,404.2174377
COANT05842,Colombia,Antioquia,Uramita,,Municipality,2,ANT,170,CO-ANT,COL,CO,"Uramita, Antioquia, Colombia",37.33096313,11609.92871,1025.431885,0.088323705,-76.13318634,6.913917065,173.4083557,65.39011383,236.385849
COANT05847,Colombia,Antioquia,Urrao,,Municipality,2,ANT,170,CO-ANT,COL,CO,"Urrao, Antioquia, Colombia",18.34382057,55324.96094,4883.737305,0.088273667,-76.25906372,6.335341454,924.2242432,544.713562,730.1016846
COANT05854,Colombia,Antioquia,Valdivia,,Municipality,2,ANT,170,CO-ANT,COL,CO,"Valdivia, Antioquia, Colombia",35.84408569,23908.00586,2111.643555,0.088323697,-75.40094757,7.265404224,145.1741028,101.6072388,536.8184814
COANT05856,Colombia,Antioquia,Valparaiso,,Municipality,2,ANT,170,CO-ANT,COL,CO,"Valparaiso, Antioquia, Colombia",61.19377136,8811.902344,780.0046387,0.088517167,-75.63083649,5.651937962,46.95138931,13.53710461,65.34722137
COANT05858,Colombia,Antioquia,Vegachi,,Municipality,2,ANT,170,CO-ANT,COL,CO,"Vegachi, Antioquia, Colombia",26.4938755,16373.21484,1446.142944,0.088323705,-74.75402832,6.836534977,205.4306641,97.02597809,475.8433838
COANT05861,Colombia,Antioquia,Venecia,,Municipality,2,ANT,170,CO-ANT,COL,CO,"Venecia, Antioquia, Colombia",113.4978867,18840.64844,1664.075806,0.088323705,-75.77722168,5.956576347,46.58787918,32.94318771,162.0666656
COANT05873,Colombia,Antioquia,Vigia Del Fuerte,,Municipality,2,ANT,170,CO-ANT,COL,CO,"Vigia Del Fuerte, Antioquia, Colombia",4.009752274,7815.007324,687.7382202,0.08800225,-76.69504547,6.453351498,1066.45166,599.8999023,1093.172729
COANT05885,Colombia,Antioquia,Yali,,Municipality,2,ANT,170,CO-ANT,COL,CO,"Yali, Antioquia, Colombia",19.56191444,10113.50977,893.2626343,0.088323705,-74.75565338,6.716870785,162.4108582,64.26514435,304.7402954
COANT05887,Colombia,Antioquia,Yarumal,,Municipality,2,ANT,170,CO-ANT,COL,CO,"Yarumal, Antioquia, Colombia",67.23209381,58559.15234,5172.161133,0.088323705,-75.45439911,6.988131046,127.6636047,45.62847137,183.8714142
COANT05890,Colombia,Antioquia,Yolombo,,Municipality,2,ANT,170,CO-ANT,COL,CO,"Yolombo, Antioquia, Colombia",24.41468048,29248.78711,2583.361084,0.088323697,-74.92275238,6.645325661,137.2236023,52.89884949,191.8886108
COANT05893,Colombia,Antioquia,Yondo,,Municipality,2,ANT,170,CO-ANT,COL,CO,"Yondo, Antioquia, Colombia",10.0524683,22417.00391,1985.479248,0.08857023,-74.15824127,6.925159454,183.1004486,105.3618698,448.2587585
COANT05895,Colombia,Antioquia,Zaragoza,,Municipality,2,ANT,170,CO-ANT,COL,CO,"Zaragoza, Antioquia, Colombia",27.78440475,38314.69531,3384.095459,0.088323697,-74.85848236,7.474003792,256.9701843,117.2062607,292.0421753
COATL08001,Colombia,Atlantico,Barranquilla,,Municipality,2,ATL,170,CO-ATL,COL,CO,"Barranquilla, Atlantico, Colombia",7993.691406,1406889.625,115878.0781,0.082364723,-74.82771301,10.98152065,1.497297287,3.465777397,22.85945892
COATL08078,Colombia,Atlantico,Baranoa,,Municipality,2,ATL,170,CO-ATL,COL,CO,"Baranoa, Atlantico, Colombia",492.3323975,71388.19531,5879.906738,0.082365252,-74.92219543,10.793293,20.0567379,18.0727005,137.0070953
COATL08137,Colombia,Atlantico,Campo De La Cruz,,Municipality,2,ATL,170,CO-ATL,COL,CO,"Campo De La Cruz, Atlantico, Colombia",130.3486633,15511.49121,1275.185181,0.082209066,-74.87841034,10.40262127,41.84426117,25.05537605,142.4016418
COATL08141,Colombia,Atlantico,Candelaria,,Municipality,2,ATL,170,CO-ATL,COL,CO,"Candelaria, Atlantico, Colombia",94.86088562,15462.32422,1273.558228,0.082365252,-74.87756348,10.48902035,39.84662628,25.96541023,127.8404922
COATL08296,Colombia,Atlantico,Galapa,,Municipality,2,ATL,170,CO-ATL,COL,CO,"Galapa, Atlantico, Colombia",641.6056519,75709.46875,6235.829102,0.082365245,-74.88708496,10.89772034,7.119657993,6.784937382,47.59828949
COATL08372,Colombia,Atlantico,Juan De Acosta,,Municipality,2,ATL,170,CO-ATL,COL,CO,"Juan De Acosta, Atlantico, Colombia",99.52800751,19905.60156,1639.529785,0.082365245,-75.07842255,10.8230648,49.40000153,47.16761398,294.4400024
COATL08421,Colombia,Atlantico,Luruaco,,Municipality,2,ATL,170,CO-ATL,COL,CO,"Luruaco, Atlantico, Colombia",121.5764847,32339.3457,2663.556396,0.082362719,-75.15402985,10.63503075,45.89313126,43.16653442,224.2175598
COATL08433,Colombia,Atlantico,Malambo,,Municipality,2,ATL,170,CO-ATL,COL,CO,"Malambo, Atlantico, Colombia",1374.343018,151177.7344,12451.13184,0.082360886,-74.80617523,10.84828854,7.8347826,8.301136971,57.26956558
COATL08436,Colombia,Atlantico,Manati,,Municipality,2,ATL,170,CO-ATL,COL,CO,"Manati, Atlantico, Colombia",76.29685211,19531.99414,1608.374634,0.082345642,-74.98477173,10.45414543,47.06563568,18.17276192,81.15830231
COATL08520,Colombia,Atlantico,Palmar De Varela,,Municipality,2,ATL,170,CO-ATL,COL,CO,"Palmar De Varela, Atlantico, Colombia",276.2391052,30110.0625,2479.068115,0.082333542,-74.77014923,10.69481182,17.01834869,23.35639954,211.2110138
COATL08549,Colombia,Atlantico,Piojo,,Municipality,2,ATL,170,CO-ATL,COL,CO,"Piojo, Atlantico, Colombia",13.41290283,4037.283691,332.3992004,0.082332388,-75.1436615,10.74078941,60.3562088,55.26325989,330.222229
COATL08558,Colombia,Atlantico,Polonuevo,,Municipality,2,ATL,170,CO-ATL,COL,CO,"Polonuevo, Atlantico, Colombia",219.7459564,19337.64258,1592.749878,0.08236526,-74.85414886,10.7674017,23.93333244,23.23084068,155.7111053
COATL08560,Colombia,Atlantico,Ponedera,,Municipality,2,ATL,170,CO-ATL,COL,CO,"Ponedera, Atlantico, Colombia",125.9111404,30974.14063,2549.592773,0.08231359,-74.79846954,10.59465122,26.87755013,33.84479904,202.616333
COATL08573,Colombia,Atlantico,Puerto Colombia,,Municipality,2,ATL,170,CO-ATL,COL,CO,"Puerto Colombia, Atlantico, Colombia",670.600647,52977.44922,4363.500977,0.082365252,-74.90740204,11.00442219,6.892857075,10.99390125,95.23809814
COATL08606,Colombia,Atlantico,Repelon,,Municipality,2,ATL,170,CO-ATL,COL,CO,"Repelon, Atlantico, Colombia",81.18197632,30849.15039,2539.192139,0.082309954,-75.12187958,10.50757027,78.90117645,35.95731735,121.9270554
COATL08634,Colombia,Atlantico,Sabanagrande,,Municipality,2,ATL,170,CO-ATL,COL,CO,"Sabanagrande, Atlantico, Colombia",820.067627,42643.51563,3511.296387,0.082340688,-74.76879883,10.7989397,7.619999886,10.63433456,95.26000214
COATL08638,Colombia,Atlantico,Sabanalarga,,Municipality,2,ATL,170,CO-ATL,COL,CO,"Sabanalarga, Atlantico, Colombia",263.7025452,120248.3594,9904.286133,0.082365252,-74.95510864,10.62250805,17.28358269,18.12517166,104.1599121
COATL08675,Colombia,Atlantico,Santa Lucia,,Municipality,2,ATL,170,CO-ATL,COL,CO,"Santa Lucia, Atlantico, Colombia",187.0053864,11968.34473,985.5169067,0.082343623,-74.96540833,10.35364151,62.08955383,23.89595032,134.4029846
COATL08685,Colombia,Atlantico,Santo Tomas,,Municipality,2,ATL,170,CO-ATL,COL,CO,"Santo Tomas, Atlantico, Colombia",318.6578674,25492.63086,2099.707031,0.082365252,-74.79479218,10.74404812,16.375,21.09250259,162.2375031
COATL08758,Colombia,Atlantico,Soledad,,Municipality,2,ATL,170,CO-ATL,COL,CO,"Soledad, Atlantico, Colombia",13304.4668,984530.5625,81087.42969,0.082361519,-74.77842712,10.90690613,3.814285755,4.389537334,21.29999924
COATL08770,Colombia,Atlantico,Suan,,Municipality,2,ATL,170,CO-ATL,COL,CO,"Suan, Atlantico, Colombia",205.3947449,10475.13184,861.574646,0.08224953,-74.90713501,10.31085014,43.95999908,33.91257095,186.0200043
COATL08832,Colombia,Atlantico,Tubara,,Municipality,2,ATL,170,CO-ATL,COL,CO,"Tubara, Atlantico, Colombia",63.43050003,14145.00098,1165.056519,0.082365252,-74.98423004,10.90721893,22.00934601,23.85760117,148.1588745
COATL08849,Colombia,Atlantico,Usiacuri,,Municipality,2,ATL,170,CO-ATL,COL,CO,"Usiacuri, Atlantico, Colombia",89.8249588,10778.99512,887.8146362,0.082365252,-74.98267365,10.74052238,30.65853691,31.2327404,167.9105682
CODC11001,Colombia,"Bogota, D.C.","Bogota, D.C.",,Municipality,2,DC,170,CO-DC,COL,CO,"Bogota, D.C., Bogota, D.C., Colombia",5349.128906,10216836,769704.8125,0.075336903,-74.18107605,4.31610775,82.03822327,61.19622421,259.2172852
COBOL13001,Colombia,Bolivar,Cartagena De Indias,,Municipality,2,BOL,170,CO-BOL,COL,CO,"Cartagena De Indias, Bolivar, Colombia",1726.460815,1208522.625,97811.14844,0.08093448,-75.46990204,10.44918919,22.89002991,20.49921417,151.155426
COBOL13006,Colombia,Bolivar,Achi,,Municipality,2,BOL,170,CO-BOL,COL,CO,"Achi, Bolivar, Colombia",38.76630402,43689.62109,3537.921143,0.080978528,-74.47805786,8.622942924,278.348053,133.3023376,460.5070801
COBOL13030,Colombia,Bolivar,Altos Del Rosario,,Municipality,2,BOL,170,CO-BOL,COL,CO,"Altos Del Rosario, Bolivar, Colombia",51.93874359,18386.31445,1488.086914,0.080934487,-74.19515991,8.757469177,228.5508423,105.9539719,231.0225983
COBOL13042,Colombia,Bolivar,Arenal,,Municipality,2,BOL,170,CO-BOL,COL,CO,"Arenal, Bolivar, Colombia",47.04705811,25405.41016,2056.173828,0.080934487,-74.10695648,8.341017723,549.0497437,418.9188843,678.7145386
COBOL13052,Colombia,Bolivar,Arjona,,Municipality,2,BOL,170,CO-BOL,COL,CO,"Arjona, Bolivar, Colombia",136.7949524,95893.25781,7761.632813,0.080940336,-75.37121582,10.16422081,71.95305634,53.02481842,201.8833618
COBOL13062,Colombia,Bolivar,Arroyohondo,,Municipality,2,BOL,170,CO-BOL,COL,CO,"Arroyohondo, Bolivar, Colombia",64.15364838,12381.6543,1002.102783,0.08093448,-75.02690125,10.24171829,63.80927658,59.37254333,297.8969116
COBOL13074,Colombia,Bolivar,Barranco De Loba,,Municipality,2,BOL,170,CO-BOL,COL,CO,"Barranco De Loba, Bolivar, Colombia",50.79129028,25497.22852,2063.60498,0.08093448,-74.1627121,8.836187363,209.0352936,76.92709351,256.9137268
COBOL13140,Colombia,Bolivar,Calamar,,Municipality,2,BOL,170,CO-BOL,COL,CO,"Calamar, Bolivar, Colombia",95.8086853,28550.98828,2312.17334,0.080984004,-75.00119781,10.2188282,62.0629158,53.38903427,263.4139099
COBOL13160,Colombia,Bolivar,Cantagallo,,Municipality,2,BOL,170,CO-BOL,COL,CO,"Cantagallo, Bolivar, Colombia",15.1977396,15805.64941,1287.442017,0.081454545,-74.10014343,7.239229202,415.4717102,351.653717,756.9654541
COBOL13188,Colombia,Bolivar,Cicuco,,Municipality,2,BOL,170,CO-BOL,COL,CO,"Cicuco, Bolivar, Colombia",93.38869476,14662.02539,1186.663452,0.08093448,-74.6884079,9.235268593,77.36075592,76.70870972,198.4746857
COBOL13212,Colombia,Bolivar,Cordoba,,Municipality,2,BOL,170,CO-BOL,COL,CO,"Cordoba, Bolivar, Colombia",16.00179482,11233.25977,910.7858887,0.081079394,-74.89445496,9.540047646,89.92351532,41.68267441,172.9971619
COBOL13222,Colombia,Bolivar,Clemencia,,Municipality,2,BOL,170,CO-BOL,COL,CO,"Clemencia, Bolivar, Colombia",154.0921021,16025.5791,1297.021973,0.080934487,-75.31446838,10.55663681,41.58823395,32.59278107,223.1176453
COBOL13244,Colombia,Bolivar,El Carmen De Bolivar,,Municipality,2,BOL,170,CO-BOL,COL,CO,"El Carmen De Bolivar, Bolivar, Colombia",67.03919983,75352.0625,6101.443848,0.080972485,-75.1579361,9.699819565,44.99732971,49.13147354,260.3087158
COBOL13248,Colombia,Bolivar,El Guamo,,Municipality,2,BOL,170,CO-BOL,COL,CO,"El Guamo, Bolivar, Colombia",16.72760391,7594.332031,614.3231201,0.080892317,-74.92810822,10.03483677,88.78649139,64.13617706,231.0217896
COBOL13268,Colombia,Bolivar,El Penon,,Municipality,2,BOL,170,CO-BOL,COL,CO,"El Penon, Bolivar, Colombia",30.50978088,11593.7168,928.2827148,0.080067739,-73.91230011,8.864818573,163.1863556,81.03009796,261.0839844
COBOL13300,Colombia,Bolivar,Hatillo De Loba,,Municipality,2,BOL,170,CO-BOL,COL,CO,"Hatillo De Loba, Bolivar, Colombia",68.85075378,15491.41895,1251.084717,0.080759853,-74.14707184,8.983828545,225.6578979,105.047699,289.4824524
COBOL13430,Colombia,Bolivar,Magangue,,Municipality,2,BOL,170,CO-BOL,COL,CO,"Magangue, Bolivar, Colombia",113.5303345,148838.2656,12047.07813,0.080940731,-74.74729156,9.169511795,112.0119324,86.9776535,270.5354309
COBOL13433,Colombia,Bolivar,Mahates,,Municipality,2,BOL,170,CO-BOL,COL,CO,"Mahates, Bolivar, Colombia",65.83596039,33839.68359,2738.797363,0.080934487,-75.17977905,10.17821407,67.02713013,46.48817444,281.6879883
COBOL13440,Colombia,Bolivar,Margarita,,Municipality,2,BOL,170,CO-BOL,COL,CO,"Margarita, Bolivar, Colombia",36.01464081,12461.06641,1001.173279,0.080344111,-74.22584534,9.054601669,198.1970978,82.35721588,348.982605
COBOL13442,Colombia,Bolivar,Maria La Baja,,Municipality,2,BOL,170,CO-BOL,COL,CO,"Maria La Baja, Bolivar, Colombia",93.43832397,60734.91016,4921.363281,0.08103022,-75.34380341,9.976016998,87.38253021,76.26914215,392.0692749
COBOL13458,Colombia,Bolivar,Montecristo,,Municipality,2,BOL,170,CO-BOL,COL,CO,"Montecristo, Bolivar, Colombia",13.81189632,34115.38281,2762.689941,0.08098077,-74.46343231,8.017100334,614.9688721,483.042572,967.7669678
COBOL13468,Colombia,Bolivar,Mompos,,Municipality,2,BOL,170,CO-BOL,COL,CO,"Mompos, Bolivar, Colombia",61.62689209,45973.66406,3718.266113,0.080878176,-74.54519653,9.142512321,193.3155823,120.5993271,302.1168823
COBOL13473,Colombia,Bolivar,Morales,,Municipality,2,BOL,170,CO-BOL,COL,CO,"Morales, Bolivar, Colombia",20.11338234,32060.73047,2592.822998,0.080872238,-73.97134399,8.253700256,328.2614746,209.3604584,359.7391663
COBOL13490,Colombia,Bolivar,Norosi,,Municipality,2,BOL,170,CO-BOL,COL,CO,"Norosi, Bolivar, Colombia",15.72059631,7703.092285,623.4458008,0.080934487,-74.1158905,8.506134987,191.3999939,186.8958588,553.4787598
COBOL13549,Colombia,Bolivar,Pinillos,,Municipality,2,BOL,170,CO-BOL,COL,CO,"Pinillos, Bolivar, Colombia",429.3295898,377380.6875,30543.11133,0.080934487,-74.38587952,8.871589661,320.1853333,219.726944,512.2284546
COBOL13580,Colombia,Bolivar,Regidor,,Municipality,2,BOL,170,CO-BOL,COL,CO,"Regidor, Bolivar, Colombia",48.9477272,10768.5,871.1591797,0.080898844,-73.85118103,8.722018242,107.3258896,42.71558762,208.0223236
COBOL13600,Colombia,Bolivar,Rio Viejo,,Municipality,2,BOL,170,CO-BOL,COL,CO,"Rio Viejo, Bolivar, Colombia",19.15080643,18997.59961,1533.324219,0.080711469,-73.99703217,8.493022919,276.7897339,215.5673065,463.2655945
COBOL13620,Colombia,Bolivar,San Cristobal,,Municipality,2,BOL,170,CO-BOL,COL,CO,"San Cristobal, Bolivar, Colombia",174.5405579,8028.865234,650.2010498,0.080982931,-75.07334137,10.36972046,93.48000336,41.52545547,199.9799957
COBOL13647,Colombia,Bolivar,San Estanislao,,Municipality,2,BOL,170,CO-BOL,COL,CO,"San Estanislao, Bolivar, Colombia",69.977005,17494.25195,1415.906738,0.080935538,-75.20523834,10.3646822,88.08333588,43.16985321,184.4087372
COBOL13650,Colombia,Bolivar,San Fernando,,Municipality,2,BOL,170,CO-BOL,COL,CO,"San Fernando, Bolivar, Colombia",46.98955917,17809.04297,1439.573242,0.080833837,-74.35870361,9.09126091,239.7795258,116.2991409,316.9816284
COBOL13654,Colombia,Bolivar,San Jacinto,,Municipality,2,BOL,170,CO-BOL,COL,CO,"San Jacinto, Bolivar, Colombia",36.38696289,19030.38086,1540.214111,0.080934487,-75.10609436,9.835362434,46.77988434,37.26930618,134.7134705
COBOL13655,Colombia,Bolivar,San Jacinto Del Cauca,,Municipality,2,BOL,170,CO-BOL,COL,CO,"San Jacinto Del Cauca, Bolivar, Colombia",32.86329651,22018.41016,1786.265015,0.081125975,-74.66840363,8.237510681,248.3031158,160.6268616,631.2139893
COBOL13657,Colombia,Bolivar,San Juan Nepomuceno,,Municipality,2,BOL,170,CO-BOL,COL,CO,"San Juan Nepomuceno, Bolivar, Colombia",44.83126068,33488.95313,2710.407715,0.080934383,-75.0657196,9.967957497,56.94871902,40.07529831,174.3333282
COBOL13667,Colombia,Bolivar,San Martin De Loba,,Municipality,2,BOL,170,CO-BOL,COL,CO,"San Martin De Loba, Bolivar, Colombia",34.07228851,18058.3125,1461.540161,0.08093448,-74.0103302,8.78769207,172.3212891,63.57928085,267.8155823
COBOL13670,Colombia,Bolivar,San Pablo,,Municipality,2,BOL,170,CO-BOL,COL,CO,"San Pablo, Bolivar, Colombia",21.20717049,50579.10156,4098.103516,0.081023648,-74.13566589,7.422366142,539.0087891,472.5114746,1038.457031
COBOL13673,Colombia,Bolivar,Santa Catalina,,Municipality,2,BOL,170,CO-BOL,COL,CO,"Santa Catalina, Bolivar, Colombia",80.75533295,16393.33203,1327.707764,0.080990717,-75.26548767,10.6498127,53.49756241,43.43912125,315.3561096
COBOL13683,Colombia,Bolivar,Santa Rosa,,Municipality,2,BOL,170,CO-BOL,COL,CO,"Santa Rosa, Bolivar, Colombia",182.7785034,33448.46484,2707.134277,0.080934487,-75.36116028,10.46920681,30.13043404,27.28059769,158.4293518
COBOL13688,Colombia,Bolivar,Santa Rosa Del Sur,,Municipality,2,BOL,170,CO-BOL,COL,CO,"Santa Rosa Del Sur, Bolivar, Colombia",21.37580681,60108.76953,4865.310547,0.080941774,-74.26272583,7.772519112,650.9263916,442.1069946,723.5167236
COBOL13744,Colombia,Bolivar,Simiti,,Municipality,2,BOL,170,CO-BOL,COL,CO,"Simiti, Bolivar, Colombia",11.19214916,17840.28516,1446.48938,0.081079945,-73.98371887,7.851315498,251.9595795,101.9052582,310.4701538
COBOL13760,Colombia,Bolivar,Soplaviento,,Municipality,2,BOL,170,CO-BOL,COL,CO,"Soplaviento, Bolivar, Colombia",111.4901352,10368.58203,839.2596436,0.080942564,-75.11698914,10.33209038,118.1376114,62.49171448,273.9724731
COBOL13780,Colombia,Bolivar,Talaigua Nuevo,,Municipality,2,BOL,170,CO-BOL,COL,CO,"Talaigua Nuevo, Bolivar, Colombia",40.55289459,11395.36328,919.1325684,0.080658473,-74.64009857,9.313446999,111.4576263,87.45149231,302.5694885
COBOL13810,Colombia,Bolivar,Tiquisio,,Municipality,2,BOL,170,CO-BOL,COL,CO,"Tiquisio, Bolivar, Colombia",346.8687134,310447.5,25125.90625,0.08093448,-74.29676056,8.492344856,200.0291443,245.6336365,765.6827393
COBOL13836,Colombia,Bolivar,Turbaco,,Municipality,2,BOL,170,CO-BOL,COL,CO,"Turbaco, Bolivar, Colombia",515.260376,121601.4531,9841.75,0.08093448,-75.37971497,10.35310745,20.89958191,13.30386925,81.89958191
COBOL13838,Colombia,Bolivar,Turbana,,Municipality,2,BOL,170,CO-BOL,COL,CO,"Turbana, Bolivar, Colombia",164.3051453,37297.26563,3019.096924,0.08094687,-75.47037506,10.21604633,40.84090805,44.41889572,195.1181793
COBOL13873,Colombia,Bolivar,Villanueva,,Municipality,2,BOL,170,CO-BOL,COL,CO,"Villanueva, Bolivar, Colombia",153.177475,25121.10547,2033.163696,0.08093448,-75.2673645,10.44491291,65.0484848,45.38768387,199.4424286
COBOL13894,Colombia,Bolivar,Zambrano,,Municipality,2,BOL,170,CO-BOL,COL,CO,"Zambrano, Bolivar, Colombia",29.44710732,10954.32422,882.9352417,0.080601528,-74.88066864,9.745146751,58.12771606,50.34106827,239.3043518
COBOY15001,Colombia,Boyaca,Tunja,,Municipality,2,BOY,170,CO-BOY,COL,CO,"Tunja, Boyaca, Colombia",1668.680298,236952.6094,27160.2207,0.11462301,-73.37802124,5.518472672,4.864285946,6.503220081,42.17142868
COBOY15022,Colombia,Boyaca,Almeida,,Municipality,2,BOY,170,CO-BOY,COL,CO,"Almeida, Boyaca, Colombia",18.72509384,1254.581299,143.8038788,0.114623,-73.38813782,4.954824924,110.5970154,40.10442734,164.7313385
COBOY15047,Colombia,Boyaca,Aquitania,,Municipality,2,BOY,170,CO-BOY,COL,CO,"Aquitania, Boyaca, Colombia",15.85372734,17264.70898,1951.338867,0.11302472,-72.87149811,5.437416553,147.5693665,128.8185272,402.2378235
COBOY15051,Colombia,Boyaca,Arcabuco,,Municipality,2,BOY,170,CO-BOY,COL,CO,"Arcabuco, Boyaca, Colombia",35.82213593,5839.007813,668.4657593,0.11448277,-73.43888092,5.749565125,52.2857132,22.78655624,86.409935
COBOY15087,Colombia,Boyaca,Belen,,Municipality,2,BOY,170,CO-BOY,COL,CO,"Belen, Boyaca, Colombia",31.73274803,6156.152832,705.5355225,0.11460657,-72.89369965,6.005059242,29.73846245,14.77232647,74.78461456
COBOY15090,Colombia,Boyaca,Berbeo,,Municipality,2,BOY,170,CO-BOY,COL,CO,"Berbeo, Boyaca, Colombia",27.95646667,1928.996216,221.1073456,0.114623,-73.1011734,5.232058525,116.8970566,51.63450623,99.35294342
COBOY15092,Colombia,Boyaca,Beteitiva,,Municipality,2,BOY,170,CO-BOY,COL,CO,"Beteitiva, Boyaca, Colombia",17.44141579,2145.293945,245.9000702,0.11462302,-72.84857941,5.92085886,43.08264542,20.96324348,108.7520676
COBOY15097,Colombia,Boyaca,Boavita,,Municipality,2,BOY,170,CO-BOY,COL,CO,"Boavita, Boyaca, Colombia",29.08130646,5060.147461,579.7144775,0.11456474,-72.62020874,6.337515831,69.4508667,45.1543045,240.820816
COBOY15104,Colombia,Boyaca,Boyaca,,Municipality,2,BOY,170,CO-BOY,COL,CO,"Boyaca, Boyaca, Colombia",89.50674438,5191.391113,595.0528564,0.114623,-73.38137054,5.439856052,15.80701733,9.518743515,46.57894897
COBOY15106,Colombia,Boyaca,Briceno,,Municipality,2,BOY,170,CO-BOY,COL,CO,"Briceno, Boyaca, Colombia",45.87864304,3349.141113,383.4054565,0.11447874,-73.90932465,5.67550993,48.47945023,35.29335022,178.9589081
COBOY15109,Colombia,Boyaca,Buenavista,,Municipality,2,BOY,170,CO-BOY,COL,CO,"Buenavista, Boyaca, Colombia",48.79554367,6294.625,719.8269043,0.1143558,-73.95066071,5.489399433,81.79069519,75.96845245,258.4806213
COBOY15114,Colombia,Boyaca,Busbanza,,Municipality,2,BOY,170,CO-BOY,COL,CO,"Busbanza, Boyaca, Colombia",48.08613968,1394.498047,159.8415527,0.114623,-72.87574768,5.843483925,27,13.68693066,73.56666565
COBOY15131,Colombia,Boyaca,Caldas,,Municipality,2,BOY,170,CO-BOY,COL,CO,"Caldas, Boyaca, Colombia",35.96630478,3344.866211,382.7178345,0.11441948,-73.88057709,5.575990677,26.30107498,16.19186211,114.1182785
COBOY15135,Colombia,Boyaca,Campohermoso,,Municipality,2,BOY,170,CO-BOY,COL,CO,"Campohermoso, Boyaca, Colombia",10.83297157,3737.375244,428.3892212,0.11462302,-73.14466858,5.00686264,200.4216461,114.9838257,404.62677
COBOY15162,Colombia,Boyaca,Cerinza,,Municipality,2,BOY,170,CO-BOY,COL,CO,"Cerinza, Boyaca, Colombia",47.70111847,3529.882568,404.5028687,0.11459386,-72.96446991,5.962013721,25.14666748,17.97008324,95.37333679
COBOY15172,Colombia,Boyaca,Chinavita,,Municipality,2,BOY,170,CO-BOY,COL,CO,"Chinavita, Boyaca, Colombia",25.13528442,3996.51001,458.0920105,0.11462301,-73.34047699,5.202971458,109.2101898,39.17470169,114.3121033
COBOY15176,Colombia,Boyaca,Chiquinquira,,Municipality,2,BOY,170,CO-BOY,COL,CO,"Chiquinquira, Boyaca, Colombia",416.9542542,80055.21094,9173.725586,0.11459249,-73.804245,5.622488022,29.12820435,23.18192673,89.68717957
COBOY15180,Colombia,Boyaca,Chiscas,,Municipality,2,BOY,170,CO-BOY,COL,CO,"Chiscas, Boyaca, Colombia",5.539055347,4281.689453,489.7593079,0.11438459,-72.41795349,6.689117908,523.4831543,419.3394165,648.3808594
COBOY15183,Colombia,Boyaca,Chita,,Municipality,2,BOY,170,CO-BOY,COL,CO,"Chita, Boyaca, Colombia",9.479894638,7583.915527,866.6563721,0.11427558,-72.43903351,6.091468334,185.8012543,95.11293793,310.6050415
COBOY15185,Colombia,Boyaca,Chitaraque,,Municipality,2,BOY,170,CO-BOY,COL,CO,"Chitaraque, Boyaca, Colombia",34.2765274,6409.710938,729.7231445,0.1138465,-73.42582703,5.98439455,105.3208542,68.66661835,202.4492035
COBOY15187,Colombia,Boyaca,Chivata,,Municipality,2,BOY,170,CO-BOY,COL,CO,"Chivata, Boyaca, Colombia",129.8457489,7271.362305,833.4654541,0.11462301,-73.26331329,5.56388092,16.83333397,7.289643288,43.73333359
COBOY15189,Colombia,Boyaca,Cienega,,Municipality,2,BOY,170,CO-BOY,COL,CO,"Cienega, Boyaca, Colombia",80.53183746,4992.974121,572.3097534,0.11462302,-73.28205872,5.393059731,34.61538315,20.39639854,90.46154022
COBOY15204,Colombia,Boyaca,Combita,,Municipality,2,BOY,170,CO-BOY,COL,CO,"Combita, Boyaca, Colombia",97.56088257,16975.59375,1945.639893,0.11461395,-73.3292923,5.687646866,37.03448105,20.82392883,138.1436768
COBOY15212,Colombia,Boyaca,Coper,,Municipality,2,BOY,170,CO-BOY,COL,CO,"Coper, Boyaca, Colombia",18.43120956,3188.599365,365.037384,0.11448205,-74.02783203,5.442983627,84.97174835,48.97430038,199.0565033
COBOY15215,Colombia,Boyaca,Corrales,,Municipality,2,BOY,170,CO-BOY,COL,CO,"Corrales, Boyaca, Colombia",40.45243073,2831.670166,324.574585,0.11462302,-72.84545135,5.82454586,18.72222137,21.53026772,124.8333359
COBOY15218,Colombia,Boyaca,Covarachia,,Municipality,2,BOY,170,CO-BOY,COL,CO,"Covarachia, Boyaca, Colombia",24.41624641,2978.781982,332.3660583,0.11157784,-72.74020386,6.519521713,76.69166565,59.74316788,350.8666687
COBOY15223,Colombia,Boyaca,Cubara,,Municipality,2,BOY,170,CO-BOY,COL,CO,"Cubara, Boyaca, Colombia",5.53118515,7649.628906,857.5110474,0.11209839,-72.18156433,6.886954784,609.5473022,508.6487122,881.9768677
COBOY15224,Colombia,Boyaca,Cucaita,,Municipality,2,BOY,170,CO-BOY,COL,CO,"Cucaita, Boyaca, Colombia",111.2135696,5560.678223,637.3817139,0.11462302,-73.44598389,5.527103901,17.18000031,11.61855602,70.44000244
COBOY15226,Colombia,Boyaca,Cuitiva,,Municipality,2,BOY,170,CO-BOY,COL,CO,"Cuitiva, Boyaca, Colombia",46.53533936,2280.231689,261.3670044,0.114623,-72.93953705,5.587754726,25.88679314,24.09709167,178.64151
COBOY15232,Colombia,Boyaca,Chiquiza,,Municipality,2,BOY,170,CO-BOY,COL,CO,"Chiquiza, Boyaca, Colombia",36.38197708,5057.094727,579.6594238,0.11462301,-73.44562531,5.643075466,37.78102112,23.4229641,115.4233551
COBOY15236,Colombia,Boyaca,Chivor,,Municipality,2,BOY,170,CO-BOY,COL,CO,"Chivor, Boyaca, Colombia",10.27611065,1294.789917,148.00177,0.11430562,-73.36142731,4.871181488,185.9296875,112.4508438,334.21875
COBOY15238,Colombia,Boyaca,Duitama,,Municipality,2,BOY,170,CO-BOY,COL,CO,"Duitama, Boyaca, Colombia",456.7824097,126528.7266,14502.66895,0.11461958,-73.0670929,5.890602589,33.3443222,30.12212944,112.673996
COBOY15244,Colombia,Boyaca,El Cocuy,,Municipality,2,BOY,170,CO-BOY,COL,CO,"El Cocuy, Boyaca, Colombia",16.42506981,4566.168945,523.1164551,0.11456353,-72.41923523,6.353363037,171.0673828,35.9809761,127.3226929
COBOY15248,Colombia,Boyaca,El Espino,,Municipality,2,BOY,170,CO-BOY,COL,CO,"El Espino, Boyaca, Colombia",55.72689056,4625.332031,530.1694946,0.11462301,-72.48049927,6.5082407,181.7228851,58.7622261,121.6144562
COBOY15272,Colombia,Boyaca,Firavitoba,,Municipality,2,BOY,170,CO-BOY,COL,CO,"Firavitoba, Boyaca, Colombia",50.32691574,6441.845215,738.383728,0.11462302,-73.01983643,5.673676491,21.10236168,17.83373642,106.5669327
COBOY15276,Colombia,Boyaca,Floresta,,Municipality,2,BOY,170,CO-BOY,COL,CO,"Floresta, Boyaca, Colombia",47.70554352,4913.670898,563.2197876,0.11462302,-72.92499542,5.8589921,25.73529434,10.24326897,51.62745285
COBOY15293,Colombia,Boyaca,Gachantiva,,Municipality,2,BOY,170,CO-BOY,COL,CO,"Gachantiva, Boyaca, Colombia",25.37164116,2740.137207,314.0827942,0.11462302,-73.54265594,5.744105816,57.08490753,8.610009193,47.95283127
COBOY15296,Colombia,Boyaca,Gameza,,Municipality,2,BOY,170,CO-BOY,COL,CO,"Gameza, Boyaca, Colombia",34.94345474,4927.026855,564.7506714,0.11462302,-72.73550415,5.803331375,86.17931366,71.65483093,276.1241455
COBOY15299,Colombia,Boyaca,Garagoa,,Municipality,2,BOY,170,CO-BOY,COL,CO,"Garagoa, Boyaca, Colombia",86.42868042,19532.88086,2238.917725,0.11462302,-73.31430054,5.089466572,148.3139038,67.52420807,197.497757
COBOY15317,Colombia,Boyaca,Guacamayas,,Municipality,2,BOY,170,CO-BOY,COL,CO,"Guacamayas, Boyaca, Colombia",22.27379417,1514.61792,173.545578,0.11458043,-72.51634979,6.445438385,112.4285736,15.77445221,52.82857132
COBOY15322,Colombia,Boyaca,Guateque,,Municipality,2,BOY,170,CO-BOY,COL,CO,"Guateque, Boyaca, Colombia",226.6739807,9746.981445,1116.334106,0.11453126,-73.48812103,5.014508247,64.7441864,6.458528042,34.5813942
COBOY15325,Colombia,Boyaca,Guayata,,Municipality,2,BOY,170,CO-BOY,COL,CO,"Guayata, Boyaca, Colombia",27.06881142,3112.91333,356.3164063,0.11446396,-73.49663544,4.931424141,196.7478333,52.33937454,143.6956482
COBOY15332,Colombia,Boyaca,Guican De La Sierra,,Municipality,2,BOY,170,CO-BOY,COL,CO,"Guican De La Sierra, Boyaca, Colombia",6.333026409,7130.987305,806.953125,0.11316149,-72.2559967,6.566991806,582.0321655,428.8161316,576.8294678
COBOY15362,Colombia,Boyaca,Iza,,Municipality,2,BOY,170,CO-BOY,COL,CO,"Iza, Boyaca, Colombia",71.30321503,2780.825439,318.746582,0.11462301,-72.96986389,5.617365837,19.10000038,20.08888435,147.6499939
COBOY15367,Colombia,Boyaca,Jenesano,,Municipality,2,BOY,170,CO-BOY,COL,CO,"Jenesano, Boyaca, Colombia",117.0650558,7843.358887,899.0294189,0.11462301,-73.37695313,5.377151966,29.95588303,13.204566,75.76470947
COBOY15368,Colombia,Boyaca,Jerico,,Municipality,2,BOY,170,CO-BOY,COL,CO,"Jerico, Boyaca, Colombia",23.96711922,3714.903564,425.8134155,0.11462301,-72.5858078,6.145459652,116.0384598,23.59966087,72.88461304
COBOY15377,Colombia,Boyaca,Labranzagrande,,Municipality,2,BOY,170,CO-BOY,COL,CO,"Labranzagrande, Boyaca, Colombia",7.457873344,5138.475098,586.3156128,0.11410303,-72.59038544,5.541378021,181.1461945,155.854248,495.1885986
COBOY15380,Colombia,Boyaca,La Capilla,,Municipality,2,BOY,170,CO-BOY,COL,CO,"La Capilla, Boyaca, Colombia",34.03360748,2314.285156,264.0921631,0.11411393,-73.45923615,5.113167286,108.9850769,59.1678772,179.3582153
COBOY15401,Colombia,Boyaca,La Victoria,,Municipality,2,BOY,170,CO-BOY,COL,CO,"La Victoria, Boyaca, Colombia",58.30361557,1865.715698,213.3428345,0.11434906,-74.22872925,5.51672411,149.4411774,68.13367462,228.9705811
COBOY15403,Colombia,Boyaca,La Uvita,,Municipality,2,BOY,170,CO-BOY,COL,CO,"La Uvita, Boyaca, Colombia",8.804068565,1637.556763,187.7016907,0.11462301,-72.55551147,6.265126228,107.111702,62.00704193,218.9574432
COBOY15407,Colombia,Boyaca,Villa De Leyva,,Municipality,2,BOY,170,CO-BOY,COL,CO,"Villa De Leyva, Boyaca, Colombia",156.7319183,22569.39453,2586.972168,0.11462302,-73.51494598,5.665762424,53.38095093,16.28033066,62.72108841
COBOY15425,Colombia,Boyaca,Macanal,,Municipality,2,BOY,170,CO-BOY,COL,CO,"Macanal, Boyaca, Colombia",23.44399071,5556.226074,636.8713379,0.11462301,-73.29413605,4.980176449,154.8776398,62.46766281,286.362854
COBOY15442,Colombia,Boyaca,Maripi,,Municipality,2,BOY,170,CO-BOY,COL,CO,"Maripi, Boyaca, Colombia",39.22060776,7569.577148,867.6477051,0.11462301,-74.02003479,5.569810867,50.03108978,33.29806137,149.663208
COBOY15455,Colombia,Boyaca,Miraflores,,Municipality,2,BOY,170,CO-BOY,COL,CO,"Miraflores, Boyaca, Colombia",36.56184769,11261.04883,1290.775269,0.114623,-73.17897034,5.150953293,138.5341949,74.32411194,218.547226
COBOY15464,Colombia,Boyaca,Mongua,,Municipality,2,BOY,170,CO-BOY,COL,CO,"Mongua, Boyaca, Colombia",11.06334972,4679.796875,536.4124146,0.11462301,-72.69158173,5.709712505,109.9317627,99.37549591,371.6564636
COBOY15466,Colombia,Boyaca,Mongui,,Municipality,2,BOY,170,CO-BOY,COL,CO,"Mongui, Boyaca, Colombia",73.71134186,6044.330078,692.8192749,0.114623,-72.83298492,5.697352409,28.18292618,22.84447289,131.4024353
COBOY15469,Colombia,Boyaca,Moniquira,,Municipality,2,BOY,170,CO-BOY,COL,CO,"Moniquira, Boyaca, Colombia",102.3591843,25692.1543,2922.224609,0.11373996,-73.55852509,5.863370419,46.44444275,13.17025375,69.15079498
